{
    "directed": true,
    "multigraph": false,
    "graph": {},
    "nodes": [
        {
            "id": 1,
            "name": "Hartford",
            "latitude": 41.76,
            "longitude": -72.69
        },
        {
            "id": 2,
            "name": "New York City",
            "latitude": 40.71,
            "longitude": -74.01
        },
        {
            "id": 3,
            "name": "Chicago",
            "latitude": 41.85,
            "longitude": -87.65
        },
        {
            "id": 4,
            "name": "Cleveland",
            "latitude": 41.5,
            "longitude": -81.7
        },
        {
            "id": 5,
            "name": "Greensboro",
            "latitude": 36.07,
            "longitude": -79.79
        },
        {
            "id": 6,
            "name": "Atlanta",
            "latitude": 33.75,
            "longitude": -84.39
        },
        {
            "id": 7,
            "name": "Washington, D.C.",
            "latitude": 38.9,
            "longitude": -77.04
        },
        {
            "id": 8,
            "name": "Reston",
            "latitude": 38.97,
            "longitude": -77.34
        },
        {
            "id": 9,
            "name": "Dallas",
            "latitude": 32.78,
            "longitude": -96.81
        },
        {
            "id": 10,
            "name": "St. Louis",
            "latitude": 38.63,
            "longitude": -90.2
        },
        {
            "id": 11,
            "name": "Seattle",
            "latitude": 47.61,
            "longitude": -122.33
        },
        {
            "id": 12,
            "name": "Denver",
            "latitude": 39.74,
            "longitude": -104.98
        },
        {
            "id": 13,
            "name": "San Francisco",
            "latitude": 37.77,
            "longitude": -122.42
        },
        {
            "id": 14,
            "name": "San Jose",
            "latitude": 37.34,
            "longitude": -121.89
        },
        {
            "id": 15,
            "name": "Los Angeles",
            "latitude": 34.05,
            "longitude": -118.24
        },
        {
            "id": 16,
            "name": "Albuquerque",
            "latitude": 35.08,
            "longitude": -106.65
        },
        {
            "id": 17,
            "name": "Honolulu",
            "latitude": 21.31,
            "longitude": -157.86
        },
        {
            "id": 18,
            "name": "Houston",
            "latitude": 29.76,
            "longitude": -95.36
        }
    ],
    "links": [
        {
            "distance": 241,
            "source": 1,
            "target": 2
        },
        {
            "distance": 1124,
            "source": 1,
            "target": 4
        },
        {
            "distance": 975,
            "source": 2,
            "target": 4
        },
        {
            "distance": 492,
            "source": 2,
            "target": 7
        },
        {
            "distance": 516,
            "source": 2,
            "target": 8
        },
        {
            "distance": 743,
            "source": 3,
            "target": 4
        },
        {
            "distance": 628,
            "source": 3,
            "target": 10
        },
        {
            "distance": 1844,
            "source": 3,
            "target": 12
        },
        {
            "distance": 739,
            "source": 5,
            "target": 6
        },
        {
            "distance": 596,
            "source": 5,
            "target": 7
        },
        {
            "distance": 1500,
            "source": 6,
            "target": 18
        },
        {
            "distance": 41,
            "source": 7,
            "target": 8
        },
        {
            "distance": 2350,
            "source": 8,
            "target": 9
        },
        {
            "distance": 1500,
            "source": 8,
            "target": 10
        },
        {
            "distance": 1323,
            "source": 9,
            "target": 10
        },
        {
            "distance": 2914,
            "source": 9,
            "target": 14
        },
        {
            "distance": 544,
            "source": 9,
            "target": 18
        },
        {
            "distance": 2052,
            "source": 11,
            "target": 12
        },
        {
            "distance": 1500,
            "source": 11,
            "target": 13
        },
        {
            "distance": 1907,
            "source": 12,
            "target": 13
        },
        {
            "distance": 100,
            "source": 13,
            "target": 14
        },
        {
            "distance": 839,
            "source": 13,
            "target": 15
        },
        {
            "distance": 1500,
            "source": 15,
            "target": 16
        },
        {
            "distance": 6484,
            "source": 16,
            "target": 17
        },
        {
            "distance": 1516,
            "source": 16,
            "target": 18
        },
        {
            "distance": 241,
            "source": 2,
            "target": 1
        },
        {
            "distance": 1124,
            "source": 4,
            "target": 1
        },
        {
            "distance": 975,
            "source": 4,
            "target": 2
        },
        {
            "distance": 492,
            "source": 7,
            "target": 2
        },
        {
            "distance": 516,
            "source": 8,
            "target": 2
        },
        {
            "distance": 743,
            "source": 4,
            "target": 3
        },
        {
            "distance": 628,
            "source": 10,
            "target": 3
        },
        {
            "distance": 1844,
            "source": 12,
            "target": 3
        },
        {
            "distance": 739,
            "source": 6,
            "target": 5
        },
        {
            "distance": 596,
            "source": 7,
            "target": 5
        },
        {
            "distance": 1500,
            "source": 18,
            "target": 6
        },
        {
            "distance": 41,
            "source": 8,
            "target": 7
        },
        {
            "distance": 2350,
            "source": 9,
            "target": 8
        },
        {
            "distance": 1500,
            "source": 10,
            "target": 8
        },
        {
            "distance": 1323,
            "source": 10,
            "target": 9
        },
        {
            "distance": 2914,
            "source": 14,
            "target": 9
        },
        {
            "distance": 544,
            "source": 18,
            "target": 9
        },
        {
            "distance": 2052,
            "source": 12,
            "target": 11
        },
        {
            "distance": 1500,
            "source": 13,
            "target": 11
        },
        {
            "distance": 1907,
            "source": 13,
            "target": 12
        },
        {
            "distance": 100,
            "source": 14,
            "target": 13
        },
        {
            "distance": 839,
            "source": 15,
            "target": 13
        },
        {
            "distance": 1500,
            "source": 16,
            "target": 15
        },
        {
            "distance": 6484,
            "source": 17,
            "target": 16
        },
        {
            "distance": 1516,
            "source": 18,
            "target": 16
        }
    ]
}
