{
    "directed": false,
    "multigraph": false,
    "graph": {},
    "nodes": [
        {
            "id": 1,
            "name": "Raleigh",
            "latitude": 35.77,
            "longitude": -78.64
        },
        {
            "id": 2,
            "name": "Miami",
            "latitude": 25.77,
            "longitude": -80.19
        },
        {
            "id": 3,
            "name": "Atlanta",
            "latitude": 33.75,
            "longitude": -84.39
        },
        {
            "id": 4,
            "name": "Charlotte",
            "latitude": 35.23,
            "longitude": -80.84
        },
        {
            "id": 5,
            "name": "Buffalo",
            "latitude": 42.89,
            "longitude": -78.88
        },
        {
            "id": 6,
            "name": "Cleveland",
            "latitude": 41.5,
            "longitude": -81.7
        },
        {
            "id": 7,
            "name": "Chicago",
            "latitude": 41.85,
            "longitude": -87.65
        },
        {
            "id": 8,
            "name": "Toronto",
            "latitude": 43.7,
            "longitude": -79.42
        },
        {
            "id": 9,
            "name": "Montreal",
            "latitude": 45.51,
            "longitude": -73.59
        },
        {
            "id": 10,
            "name": "Albany",
            "latitude": 42.65,
            "longitude": -73.76
        },
        {
            "id": 11,
            "name": "Richmond",
            "latitude": 37.55,
            "longitude": -77.46
        },
        {
            "id": 12,
            "name": "New York City",
            "latitude": 40.71,
            "longitude": -74.01
        },
        {
            "id": 13,
            "name": "Amsterdam",
            "latitude": 52.37,
            "longitude": 4.89
        },
        {
            "id": 14,
            "name": "Dusseldorf",
            "latitude": 51.22,
            "longitude": 6.78
        },
        {
            "id": 15,
            "name": "Southport",
            "latitude": 53.65,
            "longitude": -3.01
        },
        {
            "id": 16,
            "name": "Manchester",
            "latitude": 53.48,
            "longitude": -2.24
        },
        {
            "id": 17,
            "name": "Reading",
            "latitude": 51.46,
            "longitude": -0.97
        },
        {
            "id": 18,
            "name": "London",
            "latitude": 51.51,
            "longitude": -0.13
        },
        {
            "id": 19,
            "name": "Egham",
            "latitude": 51.43,
            "longitude": -0.55
        },
        {
            "id": 20,
            "name": "Biache-Saint-Vaast",
            "latitude": 50.31,
            "longitude": 2.95
        },
        {
            "id": 21,
            "name": "Paris",
            "latitude": 48.85,
            "longitude": 2.35
        },
        {
            "id": 22,
            "name": "Brussels",
            "latitude": 50.85,
            "longitude": 4.35
        },
        {
            "id": 23,
            "name": "Portrush",
            "latitude": 55.2,
            "longitude": -6.65
        },
        {
            "id": 24,
            "name": "Baltimore",
            "latitude": 39.29,
            "longitude": -76.61
        },
        {
            "id": 25,
            "name": "Washington, D.C.",
            "latitude": 38.9,
            "longitude": -77.04
        },
        {
            "id": 26,
            "name": "Ludwigshafen am Rhein",
            "latitude": 49.49,
            "longitude": 8.46
        },
        {
            "id": 27,
            "name": "Frankfurt am Main",
            "latitude": 50.12,
            "longitude": 8.68
        },
        {
            "id": 28,
            "name": "Newark",
            "latitude": 40.74,
            "longitude": -74.17
        },
        {
            "id": 29,
            "name": "Strasbourg",
            "latitude": 48.58,
            "longitude": 7.74
        },
        {
            "id": 30,
            "name": "Pittsburgh",
            "latitude": 40.44,
            "longitude": -80.0
        },
        {
            "id": 31,
            "name": "Ashburn",
            "latitude": 39.04,
            "longitude": -77.49
        },
        {
            "id": 32,
            "name": "McLean",
            "latitude": 38.93,
            "longitude": -77.18
        },
        {
            "id": 33,
            "name": "Philadelphia",
            "latitude": 39.95,
            "longitude": -75.16
        },
        {
            "id": 34,
            "name": "Rathmines",
            "latitude": 53.34,
            "longitude": -6.27
        },
        {
            "id": 35,
            "name": "Belfast",
            "latitude": 54.58,
            "longitude": -5.93
        },
        {
            "id": 36,
            "name": "L'Ancienne-Lorette",
            "latitude": 46.76,
            "longitude": -71.3
        },
        {
            "id": 37,
            "name": "Boston",
            "latitude": 42.36,
            "longitude": -71.06
        },
        {
            "id": 38,
            "name": "Stamford",
            "latitude": 41.05,
            "longitude": -73.54
        },
        {
            "id": 39,
            "name": "White Plains",
            "latitude": 41.03,
            "longitude": -73.76
        },
        {
            "id": 40,
            "name": "Halifax",
            "latitude": 44.65,
            "longitude": -63.57
        },
        {
            "id": 41,
            "name": "Truro",
            "latitude": 45.37,
            "longitude": -63.27
        },
        {
            "id": 42,
            "name": "Moncton",
            "latitude": 46.12,
            "longitude": -64.8
        },
        {
            "id": 43,
            "name": "Edmundston",
            "latitude": 47.37,
            "longitude": -68.33
        },
        {
            "id": 44,
            "name": "Houston",
            "latitude": 29.76,
            "longitude": -95.36
        },
        {
            "id": 45,
            "name": "Tampa",
            "latitude": 27.95,
            "longitude": -82.46
        },
        {
            "id": 46,
            "name": "Seattle",
            "latitude": 47.61,
            "longitude": -122.33
        },
        {
            "id": 47,
            "name": "Denver",
            "latitude": 39.74,
            "longitude": -104.98
        },
        {
            "id": 48,
            "name": "San Francisco",
            "latitude": 37.77,
            "longitude": -122.42
        },
        {
            "id": 49,
            "name": "Los Angeles",
            "latitude": 34.05,
            "longitude": -118.24
        },
        {
            "id": 50,
            "name": "San Diego",
            "latitude": 32.72,
            "longitude": -117.16
        },
        {
            "id": 51,
            "name": "Las Vegas",
            "latitude": 36.17,
            "longitude": -115.14
        },
        {
            "id": 52,
            "name": "Phoenix",
            "latitude": 33.45,
            "longitude": -112.07
        },
        {
            "id": 53,
            "name": "Dallas",
            "latitude": 32.78,
            "longitude": -96.81
        }
    ],
    "links": [
        {
            "distance": 646,
            "source": 1,
            "target": 24
        },
        {
            "distance": 312,
            "source": 1,
            "target": 4
        },
        {
            "distance": 336,
            "source": 1,
            "target": 11
        },
        {
            "distance": 1500,
            "source": 2,
            "target": 4
        },
        {
            "distance": 496,
            "source": 2,
            "target": 45
        },
        {
            "distance": 1392,
            "source": 3,
            "target": 24
        },
        {
            "distance": 547,
            "source": 3,
            "target": 4
        },
        {
            "distance": 1500,
            "source": 3,
            "target": 44
        },
        {
            "distance": 1006,
            "source": 3,
            "target": 45
        },
        {
            "distance": 628,
            "source": 5,
            "target": 10
        },
        {
            "distance": 419,
            "source": 5,
            "target": 6
        },
        {
            "distance": 150,
            "source": 5,
            "target": 8
        },
        {
            "distance": 743,
            "source": 6,
            "target": 7
        },
        {
            "distance": 278,
            "source": 6,
            "target": 30
        },
        {
            "distance": 1844,
            "source": 7,
            "target": 47
        },
        {
            "distance": 1500,
            "source": 7,
            "target": 12
        },
        {
            "distance": 1615,
            "source": 7,
            "target": 53
        },
        {
            "distance": 989,
            "source": 7,
            "target": 30
        },
        {
            "distance": 755,
            "source": 8,
            "target": 9
        },
        {
            "distance": 477,
            "source": 9,
            "target": 10
        },
        {
            "distance": 337,
            "source": 9,
            "target": 36
        },
        {
            "distance": 325,
            "source": 10,
            "target": 12
        },
        {
            "distance": 335,
            "source": 10,
            "target": 37
        },
        {
            "distance": 232,
            "source": 11,
            "target": 25
        },
        {
            "distance": 194,
            "source": 12,
            "target": 33
        },
        {
            "distance": 460,
            "source": 12,
            "target": 37
        },
        {
            "distance": 82,
            "source": 12,
            "target": 38
        },
        {
            "distance": 4919,
            "source": 12,
            "target": 49
        },
        {
            "distance": 21,
            "source": 12,
            "target": 28
        },
        {
            "distance": 273,
            "source": 13,
            "target": 14
        },
        {
            "distance": 260,
            "source": 13,
            "target": 22
        },
        {
            "distance": 272,
            "source": 14,
            "target": 27
        },
        {
            "distance": 438,
            "source": 15,
            "target": 23
        },
        {
            "distance": 81,
            "source": 15,
            "target": 16
        },
        {
            "distance": 328,
            "source": 15,
            "target": 34
        },
        {
            "distance": 361,
            "source": 16,
            "target": 17
        },
        {
            "distance": 88,
            "source": 17,
            "target": 18
        },
        {
            "distance": 44,
            "source": 17,
            "target": 19
        },
        {
            "distance": 46,
            "source": 18,
            "target": 19
        },
        {
            "distance": 413,
            "source": 19,
            "target": 20
        },
        {
            "distance": 252,
            "source": 20,
            "target": 21
        },
        {
            "distance": 173,
            "source": 20,
            "target": 22
        },
        {
            "distance": 595,
            "source": 21,
            "target": 29
        },
        {
            "distance": 5142,
            "source": 23,
            "target": 40
        },
        {
            "distance": 124,
            "source": 23,
            "target": 35
        },
        {
            "distance": 95,
            "source": 24,
            "target": 32
        },
        {
            "distance": 86,
            "source": 24,
            "target": 25
        },
        {
            "distance": 474,
            "source": 24,
            "target": 30
        },
        {
            "distance": 19,
            "source": 25,
            "target": 32
        },
        {
            "distance": 108,
            "source": 26,
            "target": 27
        },
        {
            "distance": 171,
            "source": 26,
            "target": 29
        },
        {
            "distance": 71,
            "source": 28,
            "target": 39
        },
        {
            "distance": 511,
            "source": 28,
            "target": 31
        },
        {
            "distance": 182,
            "source": 28,
            "target": 33
        },
        {
            "distance": 398,
            "source": 30,
            "target": 31
        },
        {
            "distance": 44,
            "source": 31,
            "target": 32
        },
        {
            "distance": 336,
            "source": 31,
            "target": 33
        },
        {
            "distance": 5214,
            "source": 34,
            "target": 40
        },
        {
            "distance": 209,
            "source": 34,
            "target": 35
        },
        {
            "distance": 352,
            "source": 36,
            "target": 43
        },
        {
            "distance": 378,
            "source": 37,
            "target": 38
        },
        {
            "distance": 983,
            "source": 37,
            "target": 40
        },
        {
            "distance": 28,
            "source": 38,
            "target": 39
        },
        {
            "distance": 125,
            "source": 40,
            "target": 41
        },
        {
            "distance": 218,
            "source": 41,
            "target": 42
        },
        {
            "distance": 454,
            "source": 42,
            "target": 43
        },
        {
            "distance": 2041,
            "source": 44,
            "target": 52
        },
        {
            "distance": 544,
            "source": 44,
            "target": 53
        },
        {
            "distance": 2052,
            "source": 46,
            "target": 47
        },
        {
            "distance": 1500,
            "source": 46,
            "target": 48
        },
        {
            "distance": 1907,
            "source": 47,
            "target": 48
        },
        {
            "distance": 839,
            "source": 48,
            "target": 49
        },
        {
            "distance": 268,
            "source": 49,
            "target": 50
        },
        {
            "distance": 551,
            "source": 49,
            "target": 51
        },
        {
            "distance": 861,
            "source": 49,
            "target": 52
        },
        {
            "distance": 722,
            "source": 50,
            "target": 52
        }
    ]
}
