{
    "directed": false,
    "multigraph": false,
    "graph": {},
    "nodes": [
        {
            "id": 1,
            "name": "Aylesford",
            "latitude": 51.33,
            "longitude": 0.5
        },
        {
            "id": 2,
            "name": "Wye",
            "latitude": 51.18,
            "longitude": 0.94
        },
        {
            "id": 3,
            "name": "Dunkirk",
            "latitude": 51.29,
            "longitude": 0.98
        },
        {
            "id": 4,
            "name": "Cuxton",
            "latitude": 51.4,
            "longitude": 0.43
        },
        {
            "id": 5,
            "name": "Canterbury",
            "latitude": 51.28,
            "longitude": 1.08
        },
        {
            "id": 6,
            "name": "Chatham",
            "latitude": 51.38,
            "longitude": 0.53
        },
        {
            "id": 7,
            "name": "Cranbrook",
            "latitude": 51.08,
            "longitude": 0.53
        },
        {
            "id": 8,
            "name": "Wye",
            "latitude": 51.18,
            "longitude": 0.94
        },
        {
            "id": 9,
            "name": "Welling",
            "latitude": 51.45,
            "longitude": 0.08
        },
        {
            "id": 10,
            "name": "Canterbury",
            "latitude": 51.28,
            "longitude": 1.09
        },
        {
            "id": 11,
            "name": "Royal Tunbridge Wells",
            "latitude": 51.15,
            "longitude": 0.24
        },
        {
            "id": 12,
            "name": "Ramsgate",
            "latitude": 51.36,
            "longitude": 1.41
        },
        {
            "id": 13,
            "name": "Rochester",
            "latitude": 51.38,
            "longitude": 0.51
        },
        {
            "id": 14,
            "name": "Canterbury",
            "latitude": 51.28,
            "longitude": 1.09
        },
        {
            "id": 15,
            "name": "Maidstone",
            "latitude": 51.27,
            "longitude": 0.5
        },
        {
            "id": 16,
            "name": "Tonbridge",
            "latitude": 51.18,
            "longitude": 0.28
        }
    ],
    "links": [
        {
            "distance": 14,
            "source": 1,
            "target": 4
        },
        {
            "distance": 9,
            "source": 1,
            "target": 6
        },
        {
            "distance": 42,
            "source": 1,
            "target": 7
        },
        {
            "distance": 48,
            "source": 1,
            "target": 9
        },
        {
            "distance": 10,
            "source": 1,
            "target": 15
        },
        {
            "distance": 34,
            "source": 1,
            "target": 16
        },
        {
            "distance": 22,
            "source": 2,
            "target": 5
        },
        {
            "distance": 1,
            "source": 2,
            "target": 8
        },
        {
            "distance": 60,
            "source": 3,
            "target": 4
        },
        {
            "distance": 11,
            "source": 3,
            "target": 5
        },
        {
            "distance": 37,
            "source": 4,
            "target": 9
        },
        {
            "distance": 9,
            "source": 4,
            "target": 13
        },
        {
            "distance": 37,
            "source": 5,
            "target": 12
        },
        {
            "distance": 1,
            "source": 5,
            "target": 14
        },
        {
            "distance": 1,
            "source": 5,
            "target": 10
        },
        {
            "distance": 46,
            "source": 7,
            "target": 8
        },
        {
            "distance": 7,
            "source": 11,
            "target": 16
        }
    ]
}
