{
    "directed": false,
    "multigraph": false,
    "graph": {},
    "nodes": [
        {
            "id": 1,
            "name": "Hannover",
            "latitude": 52.39,
            "longitude": 9.8
        },
        {
            "id": 2,
            "name": "Frankfurt am Main",
            "latitude": 50.14,
            "longitude": 8.66
        },
        {
            "id": 3,
            "name": "Marienthal",
            "latitude": 53.55,
            "longitude": 10.08
        },
        {
            "id": 4,
            "name": "Norden",
            "latitude": 53.6,
            "longitude": 7.21
        },
        {
            "id": 5,
            "name": "Bremen",
            "latitude": 53.08,
            "longitude": 8.8
        },
        {
            "id": 6,
            "name": "Fennpfuhl",
            "latitude": 52.52,
            "longitude": 13.48
        },
        {
            "id": 7,
            "name": "Munich",
            "latitude": 48.15,
            "longitude": 11.55
        },
        {
            "id": 8,
            "name": "Ulm",
            "latitude": 48.4,
            "longitude": 9.99
        },
        {
            "id": 9,
            "name": "Nuernberg",
            "latitude": 49.45,
            "longitude": 11.08
        },
        {
            "id": 10,
            "name": "Leinfelden-Echterdingen",
            "latitude": 48.73,
            "longitude": 9.12
        },
        {
            "id": 11,
            "name": "Karlsruhe",
            "latitude": 49.01,
            "longitude": 8.41
        },
        {
            "id": 12,
            "name": "Mannheim",
            "latitude": 49.49,
            "longitude": 8.49
        },
        {
            "id": 13,
            "name": "Essen",
            "latitude": 51.44,
            "longitude": 7.0
        },
        {
            "id": 14,
            "name": "Dortmund",
            "latitude": 51.51,
            "longitude": 7.48
        },
        {
            "id": 15,
            "name": "Dusseldorf",
            "latitude": 51.22,
            "longitude": 6.78
        },
        {
            "id": 16,
            "name": "Humboldtkolonie",
            "latitude": 50.92,
            "longitude": 7.01
        },
        {
            "id": 17,
            "name": "Leipzig",
            "latitude": 51.34,
            "longitude": 12.38
        }
    ],
    "links": [
        {
            "distance": 375,
            "source": 1,
            "target": 6
        },
        {
            "distance": 153,
            "source": 1,
            "target": 5
        },
        {
            "distance": 280,
            "source": 1,
            "target": 14
        },
        {
            "distance": 394,
            "source": 1,
            "target": 2
        },
        {
            "distance": 196,
            "source": 1,
            "target": 3
        },
        {
            "distance": 318,
            "source": 1,
            "target": 17
        },
        {
            "distance": 218,
            "source": 2,
            "target": 16
        },
        {
            "distance": 441,
            "source": 2,
            "target": 17
        },
        {
            "distance": 110,
            "source": 2,
            "target": 12
        },
        {
            "distance": 285,
            "source": 2,
            "target": 9
        },
        {
            "distance": 382,
            "source": 3,
            "target": 6
        },
        {
            "distance": 150,
            "source": 3,
            "target": 5
        },
        {
            "distance": 181,
            "source": 4,
            "target": 5
        },
        {
            "distance": 350,
            "source": 4,
            "target": 14
        },
        {
            "distance": 227,
            "source": 6,
            "target": 17
        },
        {
            "distance": 223,
            "source": 7,
            "target": 9
        },
        {
            "distance": 178,
            "source": 7,
            "target": 8
        },
        {
            "distance": 111,
            "source": 8,
            "target": 10
        },
        {
            "distance": 344,
            "source": 9,
            "target": 17
        },
        {
            "distance": 245,
            "source": 9,
            "target": 10
        },
        {
            "distance": 91,
            "source": 10,
            "target": 11
        },
        {
            "distance": 81,
            "source": 11,
            "target": 12
        },
        {
            "distance": 51,
            "source": 13,
            "target": 14
        },
        {
            "distance": 43,
            "source": 13,
            "target": 15
        },
        {
            "distance": 110,
            "source": 14,
            "target": 16
        },
        {
            "distance": 56,
            "source": 15,
            "target": 16
        }
    ]
}
