{
    "directed": false,
    "multigraph": false,
    "graph": {},
    "nodes": [
        {
            "id": 1,
            "name": "Bordeaux",
            "latitude": 44.83,
            "longitude": -0.57
        },
        {
            "id": 2,
            "name": "Toulouse",
            "latitude": 43.6,
            "longitude": 1.44
        },
        {
            "id": 3,
            "name": "Orleans",
            "latitude": 47.92,
            "longitude": 1.9
        },
        {
            "id": 4,
            "name": "Limoges",
            "latitude": 45.83,
            "longitude": 1.26
        },
        {
            "id": 5,
            "name": "Dijon",
            "latitude": 47.32,
            "longitude": 5.02
        },
        {
            "id": 6,
            "name": "Besancon",
            "latitude": 47.25,
            "longitude": 6.03
        },
        {
            "id": 7,
            "name": "Montpellier",
            "latitude": 43.6,
            "longitude": 3.88
        },
        {
            "id": 8,
            "name": "Clermont-Ferrand",
            "latitude": 45.78,
            "longitude": 3.08
        },
        {
            "id": 9,
            "name": "Grenoble",
            "latitude": 45.17,
            "longitude": 5.72
        },
        {
            "id": 10,
            "name": "Vallauris",
            "latitude": 43.62,
            "longitude": 7.05
        },
        {
            "id": 11,
            "name": "Lyon",
            "latitude": 45.75,
            "longitude": 4.85
        },
        {
            "id": 12,
            "name": "Paris",
            "latitude": 48.85,
            "longitude": 2.35
        },
        {
            "id": 13,
            "name": "Corte",
            "latitude": 42.3,
            "longitude": 9.15
        },
        {
            "id": 14,
            "name": "Marseille 04",
            "latitude": 43.3,
            "longitude": 5.4
        },
        {
            "id": 15,
            "name": "Nantes",
            "latitude": 47.22,
            "longitude": -1.55
        },
        {
            "id": 16,
            "name": "Poitiers",
            "latitude": 46.58,
            "longitude": 0.33
        },
        {
            "id": 17,
            "name": "Strasbourg",
            "latitude": 48.58,
            "longitude": 7.75
        },
        {
            "id": 18,
            "name": "Jarville-la-Malgrange",
            "latitude": 48.68,
            "longitude": 6.2
        },
        {
            "id": 19,
            "name": "Reims",
            "latitude": 49.25,
            "longitude": 4.03
        },
        {
            "id": 20,
            "name": "Compiegne",
            "latitude": 49.42,
            "longitude": 2.83
        },
        {
            "id": 21,
            "name": "Lille",
            "latitude": 50.63,
            "longitude": 3.07
        },
        {
            "id": 22,
            "name": "Rouen",
            "latitude": 49.44,
            "longitude": 1.1
        },
        {
            "id": 23,
            "name": "Caen",
            "latitude": 49.19,
            "longitude": -0.36
        },
        {
            "id": 24,
            "name": "Rennes",
            "latitude": 48.08,
            "longitude": -1.68
        }
    ],
    "links": [
        {
            "distance": 316,
            "source": 1,
            "target": 2
        },
        {
            "distance": 310,
            "source": 1,
            "target": 16
        },
        {
            "distance": 540,
            "source": 2,
            "target": 11
        },
        {
            "distance": 295,
            "source": 2,
            "target": 7
        },
        {
            "distance": 163,
            "source": 3,
            "target": 12
        },
        {
            "distance": 165,
            "source": 4,
            "target": 16
        },
        {
            "distance": 115,
            "source": 5,
            "target": 6
        },
        {
            "distance": 294,
            "source": 6,
            "target": 17
        },
        {
            "distance": 285,
            "source": 6,
            "target": 11
        },
        {
            "distance": 191,
            "source": 7,
            "target": 14
        },
        {
            "distance": 206,
            "source": 8,
            "target": 11
        },
        {
            "distance": 140,
            "source": 9,
            "target": 11
        },
        {
            "distance": 338,
            "source": 10,
            "target": 13
        },
        {
            "distance": 207,
            "source": 10,
            "target": 14
        },
        {
            "distance": 589,
            "source": 11,
            "target": 12
        },
        {
            "distance": 414,
            "source": 11,
            "target": 14
        },
        {
            "distance": 441,
            "source": 12,
            "target": 16
        },
        {
            "distance": 424,
            "source": 12,
            "target": 18
        },
        {
            "distance": 195,
            "source": 12,
            "target": 19
        },
        {
            "distance": 109,
            "source": 12,
            "target": 20
        },
        {
            "distance": 307,
            "source": 12,
            "target": 21
        },
        {
            "distance": 168,
            "source": 12,
            "target": 22
        },
        {
            "distance": 464,
            "source": 12,
            "target": 24
        },
        {
            "distance": 239,
            "source": 15,
            "target": 16
        },
        {
            "distance": 144,
            "source": 15,
            "target": 24
        },
        {
            "distance": 172,
            "source": 17,
            "target": 18
        },
        {
            "distance": 164,
            "source": 22,
            "target": 23
        }
    ]
}
