{
    "directed": false,
    "multigraph": false,
    "graph": {},
    "nodes": [
        {
            "id": 1,
            "name": "Bordeaux",
            "latitude": 44.83,
            "longitude": -0.57
        },
        {
            "id": 2,
            "name": "Pau",
            "latitude": 43.3,
            "longitude": -0.37
        },
        {
            "id": 3,
            "name": "Orleans",
            "latitude": 47.92,
            "longitude": 1.9
        },
        {
            "id": 4,
            "name": "Limoges",
            "latitude": 45.83,
            "longitude": 1.26
        },
        {
            "id": 5,
            "name": "Clermont-Ferrand",
            "latitude": 45.78,
            "longitude": 3.08
        },
        {
            "id": 6,
            "name": "Dijon",
            "latitude": 47.32,
            "longitude": 5.02
        },
        {
            "id": 7,
            "name": "Toulouse",
            "latitude": 43.6,
            "longitude": 1.44
        },
        {
            "id": 8,
            "name": "Montpellier",
            "latitude": 43.6,
            "longitude": 3.88
        },
        {
            "id": 9,
            "name": "Besancon",
            "latitude": 47.25,
            "longitude": 6.03
        },
        {
            "id": 10,
            "name": "Grenoble",
            "latitude": 45.17,
            "longitude": 5.72
        },
        {
            "id": 11,
            "name": "Lannion",
            "latitude": 48.73,
            "longitude": -3.47
        },
        {
            "id": 12,
            "name": "Brest",
            "latitude": 48.4,
            "longitude": -4.48
        },
        {
            "id": 13,
            "name": "Le Mans",
            "latitude": 48.0,
            "longitude": 0.2
        },
        {
            "id": 14,
            "name": "Tours",
            "latitude": 47.38,
            "longitude": 0.68
        },
        {
            "id": 15,
            "name": "Vierzon",
            "latitude": 47.22,
            "longitude": 2.08
        },
        {
            "id": 16,
            "name": "Saint-Prex",
            "latitude": 46.44,
            "longitude": 6.47
        },
        {
            "id": 17,
            "name": "Vannes",
            "latitude": 47.67,
            "longitude": -2.75
        },
        {
            "id": 18,
            "name": "Lorient",
            "latitude": 47.75,
            "longitude": -3.37
        },
        {
            "id": 19,
            "name": "Quimper",
            "latitude": 48.0,
            "longitude": -4.1
        },
        {
            "id": 20,
            "name": "Saint-Brieuc",
            "latitude": 48.52,
            "longitude": -2.78
        },
        {
            "id": 21,
            "name": "Angers",
            "latitude": 47.47,
            "longitude": -0.55
        },
        {
            "id": 22,
            "name": "Corte",
            "latitude": 42.3,
            "longitude": 9.15
        },
        {
            "id": 23,
            "name": "Vinon-sur-Verdon",
            "latitude": 43.7,
            "longitude": 5.75
        },
        {
            "id": 24,
            "name": "Marseille 04",
            "latitude": 43.3,
            "longitude": 5.4
        },
        {
            "id": 25,
            "name": "Nice",
            "latitude": 43.7,
            "longitude": 7.27
        },
        {
            "id": 26,
            "name": "Lyon",
            "latitude": 45.75,
            "longitude": 4.85
        },
        {
            "id": 27,
            "name": "Paris",
            "latitude": 48.85,
            "longitude": 2.35
        },
        {
            "id": 28,
            "name": "Nantes",
            "latitude": 47.22,
            "longitude": -1.55
        },
        {
            "id": 29,
            "name": "Poitiers",
            "latitude": 46.58,
            "longitude": 0.33
        },
        {
            "id": 30,
            "name": "Strasbourg",
            "latitude": 48.58,
            "longitude": 7.75
        },
        {
            "id": 31,
            "name": "Jarville-la-Malgrange",
            "latitude": 48.68,
            "longitude": 6.2
        },
        {
            "id": 32,
            "name": "Reims",
            "latitude": 49.25,
            "longitude": 4.03
        },
        {
            "id": 33,
            "name": "Compiegne",
            "latitude": 49.42,
            "longitude": 2.83
        },
        {
            "id": 34,
            "name": "Lille",
            "latitude": 50.63,
            "longitude": 3.07
        },
        {
            "id": 35,
            "name": "Rouen",
            "latitude": 49.44,
            "longitude": 1.1
        },
        {
            "id": 36,
            "name": "Caen",
            "latitude": 49.19,
            "longitude": -0.36
        },
        {
            "id": 37,
            "name": "Rennes",
            "latitude": 48.08,
            "longitude": -1.68
        }
    ],
    "links": [
        {
            "distance": 414,
            "source": 1,
            "target": 28
        },
        {
            "distance": 310,
            "source": 1,
            "target": 29
        },
        {
            "distance": 457,
            "source": 1,
            "target": 5
        },
        {
            "distance": 316,
            "source": 1,
            "target": 7
        },
        {
            "distance": 256,
            "source": 1,
            "target": 2
        },
        {
            "distance": 225,
            "source": 2,
            "target": 7
        },
        {
            "distance": 163,
            "source": 3,
            "target": 27
        },
        {
            "distance": 286,
            "source": 3,
            "target": 29
        },
        {
            "distance": 164,
            "source": 3,
            "target": 14
        },
        {
            "distance": 118,
            "source": 3,
            "target": 15
        },
        {
            "distance": 165,
            "source": 4,
            "target": 29
        },
        {
            "distance": 212,
            "source": 4,
            "target": 5
        },
        {
            "distance": 206,
            "source": 5,
            "target": 26
        },
        {
            "distance": 115,
            "source": 6,
            "target": 9
        },
        {
            "distance": 263,
            "source": 6,
            "target": 26
        },
        {
            "distance": 295,
            "source": 7,
            "target": 8
        },
        {
            "distance": 191,
            "source": 8,
            "target": 24
        },
        {
            "distance": 294,
            "source": 9,
            "target": 30
        },
        {
            "distance": 245,
            "source": 10,
            "target": 23
        },
        {
            "distance": 229,
            "source": 10,
            "target": 16
        },
        {
            "distance": 140,
            "source": 10,
            "target": 26
        },
        {
            "distance": 124,
            "source": 11,
            "target": 12
        },
        {
            "distance": 84,
            "source": 11,
            "target": 20
        },
        {
            "distance": 79,
            "source": 12,
            "target": 19
        },
        {
            "distance": 117,
            "source": 13,
            "target": 14
        },
        {
            "distance": 122,
            "source": 13,
            "target": 21
        },
        {
            "distance": 220,
            "source": 16,
            "target": 26
        },
        {
            "distance": 155,
            "source": 17,
            "target": 28
        },
        {
            "distance": 71,
            "source": 17,
            "target": 18
        },
        {
            "distance": 92,
            "source": 18,
            "target": 19
        },
        {
            "distance": 142,
            "source": 20,
            "target": 37
        },
        {
            "distance": 120,
            "source": 21,
            "target": 28
        },
        {
            "distance": 488,
            "source": 22,
            "target": 24
        },
        {
            "distance": 79,
            "source": 23,
            "target": 24
        },
        {
            "distance": 183,
            "source": 23,
            "target": 25
        },
        {
            "distance": 236,
            "source": 24,
            "target": 25
        },
        {
            "distance": 414,
            "source": 24,
            "target": 26
        },
        {
            "distance": 589,
            "source": 26,
            "target": 27
        },
        {
            "distance": 195,
            "source": 27,
            "target": 32
        },
        {
            "distance": 109,
            "source": 27,
            "target": 33
        },
        {
            "distance": 307,
            "source": 27,
            "target": 34
        },
        {
            "distance": 168,
            "source": 27,
            "target": 35
        },
        {
            "distance": 144,
            "source": 28,
            "target": 37
        },
        {
            "distance": 172,
            "source": 30,
            "target": 31
        },
        {
            "distance": 256,
            "source": 31,
            "target": 32
        },
        {
            "distance": 203,
            "source": 33,
            "target": 34
        },
        {
            "distance": 164,
            "source": 35,
            "target": 36
        },
        {
            "distance": 235,
            "source": 36,
            "target": 37
        }
    ]
}
