{
    "directed": true,
    "multigraph": false,
    "graph": {},
    "nodes": [
        {
            "id": 1,
            "name": "New York City",
            "latitude": 40.71,
            "longitude": -74.01
        },
        {
            "id": 2,
            "name": "Philadelphia",
            "latitude": 39.95,
            "longitude": -75.16
        },
        {
            "id": 3,
            "name": "Detroit",
            "latitude": 42.33,
            "longitude": -83.05
        },
        {
            "id": 4,
            "name": "Pittsburgh",
            "latitude": 40.44,
            "longitude": -80.0
        },
        {
            "id": 5,
            "name": "Houston",
            "latitude": 29.76,
            "longitude": -95.36
        },
        {
            "id": 6,
            "name": "Austin",
            "latitude": 30.27,
            "longitude": -97.74
        },
        {
            "id": 7,
            "name": "Washington, D.C.",
            "latitude": 38.9,
            "longitude": -77.04
        },
        {
            "id": 8,
            "name": "Atlanta",
            "latitude": 33.75,
            "longitude": -84.39
        },
        {
            "id": 9,
            "name": "Dallas",
            "latitude": 32.78,
            "longitude": -96.81
        },
        {
            "id": 10,
            "name": "Champaign",
            "latitude": 40.12,
            "longitude": -88.24
        },
        {
            "id": 11,
            "name": "Chicago",
            "latitude": 41.85,
            "longitude": -87.65
        },
        {
            "id": 12,
            "name": "San Francisco",
            "latitude": 37.77,
            "longitude": -122.42
        },
        {
            "id": 13,
            "name": "Los Angeles",
            "latitude": 34.05,
            "longitude": -118.24
        },
        {
            "id": 14,
            "name": "San Diego",
            "latitude": 32.72,
            "longitude": -117.16
        },
        {
            "id": 15,
            "name": "Phoenix",
            "latitude": 33.45,
            "longitude": -112.07
        },
        {
            "id": 16,
            "name": "Salt Lake City",
            "latitude": 40.76,
            "longitude": -111.89
        },
        {
            "id": 17,
            "name": "Denver",
            "latitude": 39.74,
            "longitude": -104.98
        },
        {
            "id": 18,
            "name": "Kansas City",
            "latitude": 39.11,
            "longitude": -94.63
        },
        {
            "id": 19,
            "name": "St. Louis",
            "latitude": 38.63,
            "longitude": -90.2
        }
    ],
    "links": [
        {
            "distance": 194,
            "source": 1,
            "target": 2
        },
        {
            "distance": 760,
            "source": 1,
            "target": 4
        },
        {
            "distance": 299,
            "source": 2,
            "target": 7
        },
        {
            "distance": 575,
            "source": 3,
            "target": 11
        },
        {
            "distance": 495,
            "source": 3,
            "target": 4
        },
        {
            "distance": 354,
            "source": 5,
            "target": 6
        },
        {
            "distance": 1500,
            "source": 5,
            "target": 8
        },
        {
            "distance": 439,
            "source": 6,
            "target": 9
        },
        {
            "distance": 1308,
            "source": 7,
            "target": 8
        },
        {
            "distance": 1323,
            "source": 9,
            "target": 19
        },
        {
            "distance": 1777,
            "source": 9,
            "target": 15
        },
        {
            "distance": 354,
            "source": 10,
            "target": 19
        },
        {
            "distance": 628,
            "source": 11,
            "target": 19
        },
        {
            "distance": 839,
            "source": 12,
            "target": 13
        },
        {
            "distance": 1447,
            "source": 12,
            "target": 16
        },
        {
            "distance": 268,
            "source": 13,
            "target": 14
        },
        {
            "distance": 861,
            "source": 13,
            "target": 15
        },
        {
            "distance": 896,
            "source": 16,
            "target": 17
        },
        {
            "distance": 1337,
            "source": 17,
            "target": 18
        },
        {
            "distance": 581,
            "source": 18,
            "target": 19
        },
        {
            "distance": 194,
            "source": 2,
            "target": 1
        },
        {
            "distance": 760,
            "source": 4,
            "target": 1
        },
        {
            "distance": 299,
            "source": 7,
            "target": 2
        },
        {
            "distance": 575,
            "source": 11,
            "target": 3
        },
        {
            "distance": 495,
            "source": 4,
            "target": 3
        },
        {
            "distance": 354,
            "source": 6,
            "target": 5
        },
        {
            "distance": 1500,
            "source": 8,
            "target": 5
        },
        {
            "distance": 439,
            "source": 9,
            "target": 6
        },
        {
            "distance": 1308,
            "source": 8,
            "target": 7
        },
        {
            "distance": 1323,
            "source": 19,
            "target": 9
        },
        {
            "distance": 1777,
            "source": 15,
            "target": 9
        },
        {
            "distance": 354,
            "source": 19,
            "target": 10
        },
        {
            "distance": 628,
            "source": 19,
            "target": 11
        },
        {
            "distance": 839,
            "source": 13,
            "target": 12
        },
        {
            "distance": 1447,
            "source": 16,
            "target": 12
        },
        {
            "distance": 268,
            "source": 14,
            "target": 13
        },
        {
            "distance": 861,
            "source": 15,
            "target": 13
        },
        {
            "distance": 896,
            "source": 17,
            "target": 16
        },
        {
            "distance": 1337,
            "source": 18,
            "target": 17
        },
        {
            "distance": 581,
            "source": 19,
            "target": 18
        }
    ]
}
