{
    "directed": false,
    "multigraph": false,
    "graph": {},
    "nodes": [
        {
            "id": 1,
            "name": "Ependes",
            "latitude": 46.75,
            "longitude": 7.15
        },
        {
            "id": 2,
            "name": "Olten",
            "latitude": 47.35,
            "longitude": 7.9
        },
        {
            "id": 3,
            "name": "Souppes-sur-Loing",
            "latitude": 48.18,
            "longitude": 2.73
        },
        {
            "id": 4,
            "name": "Briare",
            "latitude": 47.63,
            "longitude": 2.74
        },
        {
            "id": 5,
            "name": "Nevers",
            "latitude": 46.99,
            "longitude": 3.16
        },
        {
            "id": 6,
            "name": "Bourbon-Lancy",
            "latitude": 46.62,
            "longitude": 3.77
        },
        {
            "id": 7,
            "name": "Charolles",
            "latitude": 46.43,
            "longitude": 4.28
        },
        {
            "id": 8,
            "name": "Belleville",
            "latitude": 46.1,
            "longitude": 4.75
        },
        {
            "id": 9,
            "name": "Sault-Brenaz",
            "latitude": 45.85,
            "longitude": 5.42
        },
        {
            "id": 10,
            "name": "Culoz",
            "latitude": 45.8,
            "longitude": 5.77
        },
        {
            "id": 11,
            "name": "Lyon",
            "latitude": 45.75,
            "longitude": 4.85
        },
        {
            "id": 12,
            "name": "Montfaucon",
            "latitude": 44.08,
            "longitude": 4.75
        },
        {
            "id": 13,
            "name": "Antwerpen",
            "latitude": 51.22,
            "longitude": 4.42
        },
        {
            "id": 14,
            "name": "Toulouse",
            "latitude": 43.6,
            "longitude": 1.44
        },
        {
            "id": 15,
            "name": "Brussels",
            "latitude": 50.85,
            "longitude": 4.35
        },
        {
            "id": 16,
            "name": "Marseille",
            "latitude": 43.3,
            "longitude": 5.38
        },
        {
            "id": 17,
            "name": "Bordeaux",
            "latitude": 44.83,
            "longitude": -0.57
        },
        {
            "id": 18,
            "name": "Chezy-sur-Marne",
            "latitude": 49.0,
            "longitude": 3.37
        },
        {
            "id": 19,
            "name": "Villenoy",
            "latitude": 48.95,
            "longitude": 2.87
        },
        {
            "id": 20,
            "name": "Revigny-sur-Ornain",
            "latitude": 48.83,
            "longitude": 4.98
        },
        {
            "id": 21,
            "name": "Tours-sur-Marne",
            "latitude": 49.05,
            "longitude": 4.18
        },
        {
            "id": 22,
            "name": "Leers",
            "latitude": 50.68,
            "longitude": 3.25
        },
        {
            "id": 23,
            "name": "Antoing",
            "latitude": 50.57,
            "longitude": 3.45
        },
        {
            "id": 24,
            "name": "Thourotte",
            "latitude": 49.48,
            "longitude": 2.88
        },
        {
            "id": 25,
            "name": "Courrieres",
            "latitude": 50.45,
            "longitude": 2.93
        },
        {
            "id": 26,
            "name": "Gent",
            "latitude": 51.05,
            "longitude": 3.72
        },
        {
            "id": 27,
            "name": "Antwerpen",
            "latitude": 51.22,
            "longitude": 4.42
        },
        {
            "id": 28,
            "name": "Bern",
            "latitude": 46.95,
            "longitude": 7.45
        },
        {
            "id": 29,
            "name": "Zurich",
            "latitude": 47.37,
            "longitude": 8.55
        },
        {
            "id": 30,
            "name": "Birsfelden",
            "latitude": 47.57,
            "longitude": 7.6
        },
        {
            "id": 31,
            "name": "Jarville-la-Malgrange",
            "latitude": 48.68,
            "longitude": 6.2
        },
        {
            "id": 32,
            "name": "Strasbourg",
            "latitude": 48.58,
            "longitude": 7.75
        },
        {
            "id": 33,
            "name": "Ludwigshafen am Rhein",
            "latitude": 49.49,
            "longitude": 8.46
        },
        {
            "id": 34,
            "name": "Frankfurt am Main",
            "latitude": 50.12,
            "longitude": 8.68
        },
        {
            "id": 35,
            "name": "Frankfurt am Main",
            "latitude": 50.12,
            "longitude": 8.68
        },
        {
            "id": 36,
            "name": "Paris",
            "latitude": 48.85,
            "longitude": 2.35
        },
        {
            "id": 37,
            "name": "Geneve",
            "latitude": 46.2,
            "longitude": 6.15
        },
        {
            "id": 38,
            "name": "Virginia Water",
            "latitude": 51.42,
            "longitude": -0.57
        },
        {
            "id": 39,
            "name": "London",
            "latitude": 51.51,
            "longitude": -0.13
        },
        {
            "id": 40,
            "name": "Lowestoft",
            "latitude": 52.48,
            "longitude": 1.75
        },
        {
            "id": 41,
            "name": "Amsterdam",
            "latitude": 52.37,
            "longitude": 4.89
        },
        {
            "id": 42,
            "name": "Paris",
            "latitude": 48.85,
            "longitude": 2.35
        },
        {
            "id": 43,
            "name": "Peronne",
            "latitude": 49.92,
            "longitude": 2.92
        },
        {
            "id": 44,
            "name": "Amiens",
            "latitude": 49.9,
            "longitude": 2.3
        },
        {
            "id": 45,
            "name": "Crawley",
            "latitude": 51.11,
            "longitude": -0.18
        },
        {
            "id": 46,
            "name": "Rotterdam",
            "latitude": 51.92,
            "longitude": 4.48
        },
        {
            "id": 47,
            "name": "Brussels",
            "latitude": 50.85,
            "longitude": 4.35
        },
        {
            "id": 48,
            "name": "Grisolles",
            "latitude": 43.83,
            "longitude": 1.3
        },
        {
            "id": 49,
            "name": "Castelculier",
            "latitude": 44.18,
            "longitude": 0.68
        },
        {
            "id": 50,
            "name": "Blois",
            "latitude": 47.58,
            "longitude": 1.33
        },
        {
            "id": 51,
            "name": "Fessenheim",
            "latitude": 47.92,
            "longitude": 7.55
        },
        {
            "id": 52,
            "name": "Poitiers",
            "latitude": 46.58,
            "longitude": 0.33
        },
        {
            "id": 53,
            "name": "Tours",
            "latitude": 47.38,
            "longitude": 0.68
        },
        {
            "id": 54,
            "name": "Nersac",
            "latitude": 45.63,
            "longitude": 0.05
        },
        {
            "id": 55,
            "name": "Aulnay",
            "latitude": 46.05,
            "longitude": -0.43
        },
        {
            "id": 56,
            "name": "Meilhan-sur-Garonne",
            "latitude": 44.52,
            "longitude": 0.03
        },
        {
            "id": 57,
            "name": "Sainte-Terre",
            "latitude": 44.88,
            "longitude": -0.1
        },
        {
            "id": 58,
            "name": "Andance",
            "latitude": 45.23,
            "longitude": 4.8
        },
        {
            "id": 59,
            "name": "Dusseldorf",
            "latitude": 51.22,
            "longitude": 6.78
        },
        {
            "id": 60,
            "name": "Vernegues",
            "latitude": 43.69,
            "longitude": 5.21
        },
        {
            "id": 61,
            "name": "Montelimar",
            "latitude": 44.57,
            "longitude": 4.75
        },
        {
            "id": 62,
            "name": "Bellegarde",
            "latitude": 43.75,
            "longitude": 4.52
        },
        {
            "id": 63,
            "name": "Fos-sur-Mer",
            "latitude": 43.44,
            "longitude": 4.94
        },
        {
            "id": 64,
            "name": "Capestang",
            "latitude": 43.32,
            "longitude": 3.08
        },
        {
            "id": 65,
            "name": "Montpellier",
            "latitude": 43.6,
            "longitude": 3.88
        },
        {
            "id": 66,
            "name": "Avignonet-Lauragais",
            "latitude": 43.37,
            "longitude": 1.8
        },
        {
            "id": 67,
            "name": "Capendu",
            "latitude": 43.2,
            "longitude": 2.55
        },
        {
            "id": 68,
            "name": "Orleans",
            "latitude": 47.92,
            "longitude": 1.9
        },
        {
            "id": 69,
            "name": "Arbonne-la-Foret",
            "latitude": 48.43,
            "longitude": 2.57
        },
        {
            "id": 70,
            "name": "Clare",
            "latitude": 52.08,
            "longitude": 0.58
        },
        {
            "id": 71,
            "name": "Thurston",
            "latitude": 52.27,
            "longitude": 0.82
        },
        {
            "id": 72,
            "name": "Zandvoort",
            "latitude": 52.37,
            "longitude": 4.53
        },
        {
            "id": 73,
            "name": "Essen",
            "latitude": 51.46,
            "longitude": 4.45
        },
        {
            "id": 74,
            "name": "Corbeil-Essonnes",
            "latitude": 48.6,
            "longitude": 2.48
        },
        {
            "id": 75,
            "name": "L'Isle-Adam",
            "latitude": 49.11,
            "longitude": 2.23
        },
        {
            "id": 76,
            "name": "Cayeux-sur-Mer",
            "latitude": 50.18,
            "longitude": 1.49
        },
        {
            "id": 77,
            "name": "Eastbourne",
            "latitude": 50.8,
            "longitude": 0.23
        },
        {
            "id": 78,
            "name": "Lorquin",
            "latitude": 48.7,
            "longitude": 7.0
        },
        {
            "id": 79,
            "name": "Foug",
            "latitude": 48.7,
            "longitude": 5.7
        },
        {
            "id": 80,
            "name": "Kleve",
            "latitude": 51.87,
            "longitude": 6.15
        },
        {
            "id": 81,
            "name": "Leersum",
            "latitude": 52.01,
            "longitude": 5.43
        },
        {
            "id": 82,
            "name": "Sonsbeck",
            "latitude": 51.57,
            "longitude": 6.37
        },
        {
            "id": 83,
            "name": "Porz am Rhein",
            "latitude": 50.88,
            "longitude": 7.05
        },
        {
            "id": 84,
            "name": "Linz am Rhein",
            "latitude": 50.57,
            "longitude": 7.28
        },
        {
            "id": 85,
            "name": "Dernbach",
            "latitude": 50.55,
            "longitude": 7.6
        },
        {
            "id": 86,
            "name": "Niedernhausen",
            "latitude": 50.13,
            "longitude": 8.3
        },
        {
            "id": 87,
            "name": "Drulingen",
            "latitude": 48.9,
            "longitude": 7.17
        }
    ],
    "links": [
        {
            "distance": 48,
            "source": 1,
            "target": 28
        },
        {
            "distance": 147,
            "source": 1,
            "target": 37
        },
        {
            "distance": 84,
            "source": 2,
            "target": 28
        },
        {
            "distance": 74,
            "source": 2,
            "target": 29
        },
        {
            "distance": 75,
            "source": 3,
            "target": 74
        },
        {
            "distance": 92,
            "source": 3,
            "target": 4
        },
        {
            "distance": 117,
            "source": 4,
            "target": 5
        },
        {
            "distance": 93,
            "source": 5,
            "target": 6
        },
        {
            "distance": 67,
            "source": 6,
            "target": 7
        },
        {
            "distance": 77,
            "source": 7,
            "target": 8
        },
        {
            "distance": 42,
            "source": 9,
            "target": 10
        },
        {
            "distance": 80,
            "source": 10,
            "target": 37
        },
        {
            "distance": 87,
            "source": 11,
            "target": 58
        },
        {
            "distance": 85,
            "source": 12,
            "target": 60
        },
        {
            "distance": 82,
            "source": 12,
            "target": 61
        },
        {
            "distance": 40,
            "source": 13,
            "target": 73
        },
        {
            "distance": 1,
            "source": 13,
            "target": 27
        },
        {
            "distance": 42,
            "source": 14,
            "target": 48
        },
        {
            "distance": 58,
            "source": 14,
            "target": 66
        },
        {
            "distance": 106,
            "source": 15,
            "target": 23
        },
        {
            "distance": 1,
            "source": 15,
            "target": 47
        },
        {
            "distance": 68,
            "source": 16,
            "target": 60
        },
        {
            "distance": 58,
            "source": 16,
            "target": 63
        },
        {
            "distance": 88,
            "source": 17,
            "target": 56
        },
        {
            "distance": 56,
            "source": 17,
            "target": 57
        },
        {
            "distance": 55,
            "source": 18,
            "target": 19
        },
        {
            "distance": 89,
            "source": 18,
            "target": 21
        },
        {
            "distance": 59,
            "source": 19,
            "target": 42
        },
        {
            "distance": 95,
            "source": 20,
            "target": 21
        },
        {
            "distance": 82,
            "source": 20,
            "target": 79
        },
        {
            "distance": 204,
            "source": 22,
            "target": 24
        },
        {
            "distance": 79,
            "source": 22,
            "target": 26
        },
        {
            "distance": 28,
            "source": 22,
            "target": 23
        },
        {
            "distance": 94,
            "source": 24,
            "target": 75
        },
        {
            "distance": 74,
            "source": 24,
            "target": 43
        },
        {
            "distance": 88,
            "source": 25,
            "target": 43
        },
        {
            "distance": 74,
            "source": 26,
            "target": 47
        },
        {
            "distance": 62,
            "source": 27,
            "target": 47
        },
        {
            "distance": 112,
            "source": 29,
            "target": 30
        },
        {
            "distance": 59,
            "source": 30,
            "target": 51
        },
        {
            "distance": 88,
            "source": 31,
            "target": 78
        },
        {
            "distance": 55,
            "source": 31,
            "target": 79
        },
        {
            "distance": 112,
            "source": 32,
            "target": 51
        },
        {
            "distance": 85,
            "source": 32,
            "target": 78
        },
        {
            "distance": 83,
            "source": 32,
            "target": 87
        },
        {
            "distance": 108,
            "source": 33,
            "target": 35
        },
        {
            "distance": 172,
            "source": 33,
            "target": 87
        },
        {
            "distance": 1,
            "source": 34,
            "target": 35
        },
        {
            "distance": 41,
            "source": 34,
            "target": 86
        },
        {
            "distance": 1,
            "source": 36,
            "target": 42
        },
        {
            "distance": 45,
            "source": 36,
            "target": 75
        },
        {
            "distance": 66,
            "source": 38,
            "target": 45
        },
        {
            "distance": 48,
            "source": 38,
            "target": 39
        },
        {
            "distance": 120,
            "source": 39,
            "target": 70
        },
        {
            "distance": 283,
            "source": 40,
            "target": 72
        },
        {
            "distance": 101,
            "source": 40,
            "target": 71
        },
        {
            "distance": 37,
            "source": 41,
            "target": 72
        },
        {
            "distance": 82,
            "source": 41,
            "target": 81
        },
        {
            "distance": 86,
            "source": 41,
            "target": 46
        },
        {
            "distance": 44,
            "source": 42,
            "target": 74
        },
        {
            "distance": 74,
            "source": 42,
            "target": 69
        },
        {
            "distance": 67,
            "source": 43,
            "target": 44
        },
        {
            "distance": 99,
            "source": 44,
            "target": 76
        },
        {
            "distance": 67,
            "source": 45,
            "target": 77
        },
        {
            "distance": 77,
            "source": 46,
            "target": 73
        },
        {
            "distance": 95,
            "source": 48,
            "target": 49
        },
        {
            "distance": 96,
            "source": 49,
            "target": 56
        },
        {
            "distance": 85,
            "source": 50,
            "target": 68
        },
        {
            "distance": 81,
            "source": 50,
            "target": 53
        },
        {
            "distance": 139,
            "source": 52,
            "target": 53
        },
        {
            "distance": 124,
            "source": 52,
            "target": 55
        },
        {
            "distance": 90,
            "source": 54,
            "target": 55
        },
        {
            "distance": 126,
            "source": 54,
            "target": 57
        },
        {
            "distance": 110,
            "source": 58,
            "target": 61
        },
        {
            "distance": 72,
            "source": 59,
            "target": 82
        },
        {
            "distance": 63,
            "source": 59,
            "target": 83
        },
        {
            "distance": 81,
            "source": 62,
            "target": 65
        },
        {
            "distance": 72,
            "source": 62,
            "target": 63
        },
        {
            "distance": 108,
            "source": 64,
            "target": 65
        },
        {
            "distance": 67,
            "source": 64,
            "target": 67
        },
        {
            "distance": 95,
            "source": 66,
            "target": 67
        },
        {
            "distance": 113,
            "source": 68,
            "target": 69
        },
        {
            "distance": 40,
            "source": 70,
            "target": 71
        },
        {
            "distance": 169,
            "source": 76,
            "target": 77
        },
        {
            "distance": 78,
            "source": 80,
            "target": 81
        },
        {
            "distance": 55,
            "source": 80,
            "target": 82
        },
        {
            "distance": 57,
            "source": 83,
            "target": 84
        },
        {
            "distance": 34,
            "source": 84,
            "target": 85
        },
        {
            "distance": 102,
            "source": 85,
            "target": 86
        }
    ]
}
