{
    "directed": true,
    "multigraph": false,
    "graph": {},
    "nodes": [
        {
            "id": 1,
            "name": "Varanasi",
            "latitude": 25.33,
            "longitude": 83.0
        },
        {
            "id": 2,
            "name": "Udaipur",
            "latitude": 24.57,
            "longitude": 73.69
        },
        {
            "id": 3,
            "name": "Zaidpur",
            "latitude": 26.62,
            "longitude": 81.37
        },
        {
            "id": 4,
            "name": "Sitapur",
            "latitude": 27.57,
            "longitude": 80.68
        },
        {
            "id": 5,
            "name": "Dehradun",
            "latitude": 30.32,
            "longitude": 78.03
        },
        {
            "id": 6,
            "name": "Lucknow",
            "latitude": 26.85,
            "longitude": 80.92
        },
        {
            "id": 7,
            "name": "Kanpur",
            "latitude": 26.47,
            "longitude": 80.35
        },
        {
            "id": 8,
            "name": "Fatehpur",
            "latitude": 25.93,
            "longitude": 80.8
        },
        {
            "id": 9,
            "name": "Jaunpur",
            "latitude": 25.73,
            "longitude": 82.68
        },
        {
            "id": 10,
            "name": "Allahabad",
            "latitude": 25.45,
            "longitude": 81.85
        },
        {
            "id": 11,
            "name": "Patna",
            "latitude": 25.6,
            "longitude": 85.12
        },
        {
            "id": 12,
            "name": "Bokaro",
            "latitude": 23.78,
            "longitude": 85.97
        },
        {
            "id": 13,
            "name": "Hazaribag",
            "latitude": 23.98,
            "longitude": 85.35
        },
        {
            "id": 14,
            "name": "Bodh Gaya",
            "latitude": 24.7,
            "longitude": 84.98
        },
        {
            "id": 15,
            "name": "Kolkata",
            "latitude": 22.57,
            "longitude": 88.37
        },
        {
            "id": 16,
            "name": "Satna",
            "latitude": 24.58,
            "longitude": 80.83
        },
        {
            "id": 17,
            "name": "Dhanbad",
            "latitude": 23.8,
            "longitude": 86.45
        },
        {
            "id": 18,
            "name": "Asansol",
            "latitude": 23.68,
            "longitude": 86.98
        },
        {
            "id": 19,
            "name": "Rewa",
            "latitude": 24.53,
            "longitude": 81.3
        },
        {
            "id": 20,
            "name": "Jhansi",
            "latitude": 25.43,
            "longitude": 78.58
        },
        {
            "id": 21,
            "name": "Sandur",
            "latitude": 15.2,
            "longitude": 76.68
        },
        {
            "id": 22,
            "name": "Bellary",
            "latitude": 15.15,
            "longitude": 76.93
        },
        {
            "id": 23,
            "name": "Taleigao",
            "latitude": 15.48,
            "longitude": 73.83
        },
        {
            "id": 24,
            "name": "Hubli",
            "latitude": 15.35,
            "longitude": 75.17
        },
        {
            "id": 25,
            "name": "Solapur",
            "latitude": 17.68,
            "longitude": 75.92
        },
        {
            "id": 26,
            "name": "Belgaum",
            "latitude": 15.87,
            "longitude": 74.5
        },
        {
            "id": 27,
            "name": "Raichur",
            "latitude": 16.2,
            "longitude": 77.37
        },
        {
            "id": 28,
            "name": "Gulbarga",
            "latitude": 17.33,
            "longitude": 76.83
        },
        {
            "id": 29,
            "name": "Chitradurga",
            "latitude": 14.23,
            "longitude": 76.4
        },
        {
            "id": 30,
            "name": "Taleigao",
            "latitude": 15.48,
            "longitude": 73.83
        },
        {
            "id": 31,
            "name": "Ranchi",
            "latitude": 23.35,
            "longitude": 85.33
        },
        {
            "id": 32,
            "name": "Jamshedpur",
            "latitude": 22.8,
            "longitude": 86.18
        },
        {
            "id": 33,
            "name": "Coimbatore",
            "latitude": 11.0,
            "longitude": 76.97
        },
        {
            "id": 34,
            "name": "Trichur",
            "latitude": 10.52,
            "longitude": 76.22
        },
        {
            "id": 35,
            "name": "Banposh",
            "latitude": 22.2,
            "longitude": 84.88
        },
        {
            "id": 36,
            "name": "Kharagpur",
            "latitude": 22.33,
            "longitude": 87.33
        },
        {
            "id": 37,
            "name": "Cannanore",
            "latitude": 11.87,
            "longitude": 75.36
        },
        {
            "id": 38,
            "name": "Mangalore",
            "latitude": 12.87,
            "longitude": 74.88
        },
        {
            "id": 39,
            "name": "Palakkad",
            "latitude": 10.78,
            "longitude": 76.65
        },
        {
            "id": 40,
            "name": "Kozhikode",
            "latitude": 11.25,
            "longitude": 75.77
        },
        {
            "id": 41,
            "name": "Rohtak",
            "latitude": 28.9,
            "longitude": 76.57
        },
        {
            "id": 42,
            "name": "Gurgaon",
            "latitude": 28.47,
            "longitude": 77.03
        },
        {
            "id": 43,
            "name": "Bhatinda",
            "latitude": 30.2,
            "longitude": 74.95
        },
        {
            "id": 44,
            "name": "Kotkapura",
            "latitude": 30.58,
            "longitude": 74.9
        },
        {
            "id": 45,
            "name": "Noida",
            "latitude": 28.58,
            "longitude": 77.33
        },
        {
            "id": 46,
            "name": "Meerut",
            "latitude": 28.98,
            "longitude": 77.7
        },
        {
            "id": 47,
            "name": "New Delhi",
            "latitude": 28.64,
            "longitude": 77.22
        },
        {
            "id": 48,
            "name": "Sonipat",
            "latitude": 28.98,
            "longitude": 77.02
        },
        {
            "id": 49,
            "name": "Moradabad",
            "latitude": 28.83,
            "longitude": 78.78
        },
        {
            "id": 50,
            "name": "Bareilly",
            "latitude": 28.35,
            "longitude": 79.42
        },
        {
            "id": 51,
            "name": "George Town",
            "latitude": 13.09,
            "longitude": 80.28
        },
        {
            "id": 52,
            "name": "Kanchipuram",
            "latitude": 12.83,
            "longitude": 79.72
        },
        {
            "id": 53,
            "name": "Bangalore",
            "latitude": 12.98,
            "longitude": 77.6
        },
        {
            "id": 54,
            "name": "Kolar",
            "latitude": 13.13,
            "longitude": 78.13
        },
        {
            "id": 55,
            "name": "Hassan",
            "latitude": 13.0,
            "longitude": 76.1
        },
        {
            "id": 56,
            "name": "Mysore",
            "latitude": 12.31,
            "longitude": 76.65
        },
        {
            "id": 57,
            "name": "Ongole",
            "latitude": 15.5,
            "longitude": 80.05
        },
        {
            "id": 58,
            "name": "Vijayawada",
            "latitude": 16.52,
            "longitude": 80.62
        },
        {
            "id": 59,
            "name": "Akkarampalle",
            "latitude": 13.65,
            "longitude": 79.42
        },
        {
            "id": 60,
            "name": "Nellore",
            "latitude": 14.43,
            "longitude": 79.97
        },
        {
            "id": 61,
            "name": "Raipur",
            "latitude": 21.23,
            "longitude": 81.63
        },
        {
            "id": 62,
            "name": "Bhandara",
            "latitude": 21.17,
            "longitude": 79.65
        },
        {
            "id": 63,
            "name": "Nagpur",
            "latitude": 21.15,
            "longitude": 79.1
        },
        {
            "id": 64,
            "name": "Wardha",
            "latitude": 20.75,
            "longitude": 78.62
        },
        {
            "id": 65,
            "name": "Amravati",
            "latitude": 20.93,
            "longitude": 77.75
        },
        {
            "id": 66,
            "name": "Buldana",
            "latitude": 20.53,
            "longitude": 76.18
        },
        {
            "id": 67,
            "name": "Akola",
            "latitude": 20.73,
            "longitude": 77.0
        },
        {
            "id": 68,
            "name": "Khandwa",
            "latitude": 21.83,
            "longitude": 76.33
        },
        {
            "id": 69,
            "name": "Bhubaneshwar",
            "latitude": 20.23,
            "longitude": 85.83
        },
        {
            "id": 70,
            "name": "Dhenkanal",
            "latitude": 20.67,
            "longitude": 85.6
        },
        {
            "id": 71,
            "name": "Jabalpur",
            "latitude": 23.17,
            "longitude": 79.95
        },
        {
            "id": 72,
            "name": "Damoh",
            "latitude": 23.83,
            "longitude": 79.45
        },
        {
            "id": 73,
            "name": "Sagar",
            "latitude": 23.83,
            "longitude": 78.72
        },
        {
            "id": 74,
            "name": "Kozhikode",
            "latitude": 11.25,
            "longitude": 75.77
        },
        {
            "id": 75,
            "name": "Nanded",
            "latitude": 19.15,
            "longitude": 77.33
        },
        {
            "id": 76,
            "name": "Ahmadnagar",
            "latitude": 19.08,
            "longitude": 74.73
        },
        {
            "id": 77,
            "name": "Pune",
            "latitude": 18.52,
            "longitude": 73.86
        },
        {
            "id": 78,
            "name": "Satara",
            "latitude": 17.68,
            "longitude": 73.98
        },
        {
            "id": 79,
            "name": "Yarada",
            "latitude": 17.7,
            "longitude": 83.3
        },
        {
            "id": 80,
            "name": "Chandrapur",
            "latitude": 19.95,
            "longitude": 79.3
        },
        {
            "id": 81,
            "name": "Hyderabad",
            "latitude": 17.38,
            "longitude": 78.47
        },
        {
            "id": 82,
            "name": "Sangareddi",
            "latitude": 17.63,
            "longitude": 78.09
        },
        {
            "id": 83,
            "name": "Chandigarh",
            "latitude": 30.73,
            "longitude": 76.79
        },
        {
            "id": 84,
            "name": "Kolhapur",
            "latitude": 16.7,
            "longitude": 74.22
        },
        {
            "id": 85,
            "name": "Sangli",
            "latitude": 16.85,
            "longitude": 74.56
        },
        {
            "id": 86,
            "name": "Ambala",
            "latitude": 30.38,
            "longitude": 76.78
        },
        {
            "id": 87,
            "name": "Dhar",
            "latitude": 22.6,
            "longitude": 75.3
        },
        {
            "id": 88,
            "name": "Ujjain",
            "latitude": 23.18,
            "longitude": 75.77
        },
        {
            "id": 89,
            "name": "Ghandinagar",
            "latitude": 23.22,
            "longitude": 72.68
        },
        {
            "id": 90,
            "name": "Himatnagar",
            "latitude": 23.6,
            "longitude": 72.95
        },
        {
            "id": 91,
            "name": "Ahmedabad",
            "latitude": 23.03,
            "longitude": 72.62
        },
        {
            "id": 92,
            "name": "Anand",
            "latitude": 22.57,
            "longitude": 72.93
        },
        {
            "id": 93,
            "name": "Bhopal",
            "latitude": 23.27,
            "longitude": 77.4
        },
        {
            "id": 94,
            "name": "Ratlam",
            "latitude": 23.32,
            "longitude": 75.07
        },
        {
            "id": 95,
            "name": "Indore",
            "latitude": 22.72,
            "longitude": 75.83
        },
        {
            "id": 96,
            "name": "Vidisha",
            "latitude": 23.53,
            "longitude": 77.82
        },
        {
            "id": 97,
            "name": "Aurangabad",
            "latitude": 19.88,
            "longitude": 75.33
        },
        {
            "id": 98,
            "name": "Jalgaon",
            "latitude": 21.02,
            "longitude": 75.57
        },
        {
            "id": 99,
            "name": "Nashik",
            "latitude": 19.98,
            "longitude": 73.8
        },
        {
            "id": 100,
            "name": "Dhule",
            "latitude": 20.9,
            "longitude": 74.78
        },
        {
            "id": 101,
            "name": "Valsad",
            "latitude": 20.63,
            "longitude": 72.93
        },
        {
            "id": 102,
            "name": "Mumbai",
            "latitude": 19.01,
            "longitude": 72.85
        },
        {
            "id": 103,
            "name": "Bharuch",
            "latitude": 21.7,
            "longitude": 72.97
        },
        {
            "id": 104,
            "name": "Surat",
            "latitude": 21.17,
            "longitude": 72.83
        },
        {
            "id": 105,
            "name": "Godhra",
            "latitude": 22.75,
            "longitude": 73.63
        },
        {
            "id": 106,
            "name": "Vadodara",
            "latitude": 22.3,
            "longitude": 73.2
        },
        {
            "id": 107,
            "name": "Karnal",
            "latitude": 29.68,
            "longitude": 76.98
        },
        {
            "id": 108,
            "name": "Talwandi Bhai",
            "latitude": 30.85,
            "longitude": 74.93
        },
        {
            "id": 109,
            "name": "Kollam",
            "latitude": 8.88,
            "longitude": 76.6
        },
        {
            "id": 110,
            "name": "Cochin",
            "latitude": 9.98,
            "longitude": 76.28
        },
        {
            "id": 111,
            "name": "Tiruvalla",
            "latitude": 9.38,
            "longitude": 76.57
        },
        {
            "id": 112,
            "name": "Kottayam",
            "latitude": 9.58,
            "longitude": 76.52
        },
        {
            "id": 113,
            "name": "Tirunelveli",
            "latitude": 8.73,
            "longitude": 77.7
        },
        {
            "id": 114,
            "name": "Tiruchchendur",
            "latitude": 8.48,
            "longitude": 78.12
        },
        {
            "id": 115,
            "name": "Kanniyakumari",
            "latitude": 8.08,
            "longitude": 77.57
        },
        {
            "id": 116,
            "name": "Thiruvananthapuram",
            "latitude": 8.48,
            "longitude": 76.92
        },
        {
            "id": 117,
            "name": "Alleppey",
            "latitude": 9.48,
            "longitude": 76.32
        },
        {
            "id": 118,
            "name": "Gwalior",
            "latitude": 26.22,
            "longitude": 78.18
        },
        {
            "id": 119,
            "name": "Rajgarh",
            "latitude": 24.0,
            "longitude": 76.72
        },
        {
            "id": 120,
            "name": "Ajmer",
            "latitude": 26.45,
            "longitude": 74.63
        },
        {
            "id": 121,
            "name": "Agra",
            "latitude": 27.18,
            "longitude": 78.02
        },
        {
            "id": 122,
            "name": "Mathura",
            "latitude": 27.5,
            "longitude": 77.68
        },
        {
            "id": 123,
            "name": "Ghaziabad",
            "latitude": 28.67,
            "longitude": 77.43
        },
        {
            "id": 124,
            "name": "Kota",
            "latitude": 25.18,
            "longitude": 75.83
        },
        {
            "id": 125,
            "name": "Bhilwara",
            "latitude": 25.35,
            "longitude": 74.63
        },
        {
            "id": 126,
            "name": "Tonk",
            "latitude": 26.17,
            "longitude": 75.78
        },
        {
            "id": 127,
            "name": "Jaipur",
            "latitude": 26.92,
            "longitude": 75.82
        },
        {
            "id": 128,
            "name": "Sivakasi",
            "latitude": 9.45,
            "longitude": 77.82
        },
        {
            "id": 129,
            "name": "Tiruchirappalli",
            "latitude": 10.8,
            "longitude": 78.7
        },
        {
            "id": 130,
            "name": "Tiruppur",
            "latitude": 11.1,
            "longitude": 77.35
        },
        {
            "id": 131,
            "name": "Erode",
            "latitude": 11.35,
            "longitude": 77.73
        },
        {
            "id": 132,
            "name": "Salem",
            "latitude": 11.65,
            "longitude": 78.17
        },
        {
            "id": 133,
            "name": "Palladam",
            "latitude": 10.98,
            "longitude": 77.3
        },
        {
            "id": 134,
            "name": "Chidambaram",
            "latitude": 11.4,
            "longitude": 79.7
        },
        {
            "id": 135,
            "name": "Puducherry",
            "latitude": 11.93,
            "longitude": 79.83
        },
        {
            "id": 136,
            "name": "Pathankot",
            "latitude": 32.28,
            "longitude": 75.65
        },
        {
            "id": 137,
            "name": "Hoshiarpur",
            "latitude": 31.53,
            "longitude": 75.92
        },
        {
            "id": 138,
            "name": "Amritsar",
            "latitude": 31.63,
            "longitude": 74.87
        },
        {
            "id": 139,
            "name": "Jalandhar",
            "latitude": 31.33,
            "longitude": 75.58
        },
        {
            "id": 140,
            "name": "Ludhiana",
            "latitude": 30.9,
            "longitude": 75.85
        },
        {
            "id": 141,
            "name": "Patiala",
            "latitude": 30.33,
            "longitude": 76.4
        },
        {
            "id": 142,
            "name": "Ramanathapuram",
            "latitude": 9.38,
            "longitude": 78.83
        },
        {
            "id": 143,
            "name": "Madurai",
            "latitude": 9.93,
            "longitude": 78.12
        }
    ],
    "links": [
        {
            "distance": 82,
            "source": 1,
            "target": 9
        },
        {
            "distance": 322,
            "source": 1,
            "target": 11
        },
        {
            "distance": 304,
            "source": 2,
            "target": 91
        },
        {
            "distance": 193,
            "source": 2,
            "target": 125
        },
        {
            "distance": 189,
            "source": 3,
            "target": 4
        },
        {
            "distance": 77,
            "source": 3,
            "target": 6
        },
        {
            "distance": 227,
            "source": 4,
            "target": 50
        },
        {
            "distance": 717,
            "source": 5,
            "target": 6
        },
        {
            "distance": 323,
            "source": 6,
            "target": 9
        },
        {
            "distance": 106,
            "source": 6,
            "target": 7
        },
        {
            "distance": 112,
            "source": 7,
            "target": 8
        },
        {
            "distance": 177,
            "source": 8,
            "target": 10
        },
        {
            "distance": 175,
            "source": 10,
            "target": 19
        },
        {
            "distance": 493,
            "source": 10,
            "target": 20
        },
        {
            "distance": 152,
            "source": 11,
            "target": 14
        },
        {
            "distance": 73,
            "source": 12,
            "target": 17
        },
        {
            "distance": 155,
            "source": 12,
            "target": 18
        },
        {
            "distance": 100,
            "source": 12,
            "target": 13
        },
        {
            "distance": 167,
            "source": 12,
            "target": 32
        },
        {
            "distance": 133,
            "source": 13,
            "target": 14
        },
        {
            "distance": 105,
            "source": 13,
            "target": 31
        },
        {
            "distance": 165,
            "source": 15,
            "target": 36
        },
        {
            "distance": 485,
            "source": 15,
            "target": 31
        },
        {
            "distance": 72,
            "source": 16,
            "target": 19
        },
        {
            "distance": 368,
            "source": 16,
            "target": 20
        },
        {
            "distance": 271,
            "source": 16,
            "target": 71
        },
        {
            "distance": 83,
            "source": 17,
            "target": 18
        },
        {
            "distance": 145,
            "source": 20,
            "target": 118
        },
        {
            "distance": 200,
            "source": 21,
            "target": 27
        },
        {
            "distance": 399,
            "source": 21,
            "target": 53
        },
        {
            "distance": 41,
            "source": 21,
            "target": 22
        },
        {
            "distance": 409,
            "source": 22,
            "target": 26
        },
        {
            "distance": 1,
            "source": 23,
            "target": 30
        },
        {
            "distance": 467,
            "source": 23,
            "target": 38
        },
        {
            "distance": 217,
            "source": 23,
            "target": 24
        },
        {
            "distance": 138,
            "source": 24,
            "target": 26
        },
        {
            "distance": 420,
            "source": 24,
            "target": 55
        },
        {
            "distance": 378,
            "source": 25,
            "target": 26
        },
        {
            "distance": 156,
            "source": 25,
            "target": 28
        },
        {
            "distance": 300,
            "source": 25,
            "target": 76
        },
        {
            "distance": 146,
            "source": 26,
            "target": 84
        },
        {
            "distance": 126,
            "source": 26,
            "target": 30
        },
        {
            "distance": 264,
            "source": 27,
            "target": 81
        },
        {
            "distance": 261,
            "source": 28,
            "target": 81
        },
        {
            "distance": 335,
            "source": 29,
            "target": 38
        },
        {
            "distance": 224,
            "source": 32,
            "target": 35
        },
        {
            "distance": 294,
            "source": 33,
            "target": 128
        },
        {
            "distance": 285,
            "source": 33,
            "target": 129
        },
        {
            "distance": 64,
            "source": 33,
            "target": 130
        },
        {
            "distance": 275,
            "source": 33,
            "target": 117
        },
        {
            "distance": 174,
            "source": 34,
            "target": 117
        },
        {
            "distance": 83,
            "source": 34,
            "target": 39
        },
        {
            "distance": 529,
            "source": 35,
            "target": 61
        },
        {
            "distance": 421,
            "source": 36,
            "target": 69
        },
        {
            "distance": 184,
            "source": 37,
            "target": 38
        },
        {
            "distance": 123,
            "source": 37,
            "target": 40
        },
        {
            "distance": 307,
            "source": 38,
            "target": 74
        },
        {
            "distance": 164,
            "source": 39,
            "target": 40
        },
        {
            "distance": 98,
            "source": 41,
            "target": 42
        },
        {
            "distance": 240,
            "source": 41,
            "target": 141
        },
        {
            "distance": 67,
            "source": 41,
            "target": 48
        },
        {
            "distance": 40,
            "source": 42,
            "target": 47
        },
        {
            "distance": 108,
            "source": 43,
            "target": 108
        },
        {
            "distance": 175,
            "source": 44,
            "target": 138
        },
        {
            "distance": 45,
            "source": 44,
            "target": 108
        },
        {
            "distance": 19,
            "source": 45,
            "target": 47
        },
        {
            "distance": 160,
            "source": 46,
            "target": 49
        },
        {
            "distance": 65,
            "source": 46,
            "target": 123
        },
        {
            "distance": 354,
            "source": 47,
            "target": 127
        },
        {
            "distance": 64,
            "source": 47,
            "target": 48
        },
        {
            "distance": 202,
            "source": 47,
            "target": 122
        },
        {
            "distance": 31,
            "source": 47,
            "target": 123
        },
        {
            "distance": 117,
            "source": 48,
            "target": 107
        },
        {
            "distance": 123,
            "source": 49,
            "target": 50
        },
        {
            "distance": 168,
            "source": 51,
            "target": 59
        },
        {
            "distance": 151,
            "source": 52,
            "target": 135
        },
        {
            "distance": 145,
            "source": 52,
            "target": 59
        },
        {
            "distance": 273,
            "source": 53,
            "target": 131
        },
        {
            "distance": 240,
            "source": 53,
            "target": 132
        },
        {
            "distance": 90,
            "source": 53,
            "target": 54
        },
        {
            "distance": 191,
            "source": 53,
            "target": 56
        },
        {
            "distance": 227,
            "source": 54,
            "target": 59
        },
        {
            "distance": 228,
            "source": 56,
            "target": 74
        },
        {
            "distance": 193,
            "source": 57,
            "target": 58
        },
        {
            "distance": 179,
            "source": 57,
            "target": 60
        },
        {
            "distance": 636,
            "source": 57,
            "target": 79
        },
        {
            "distance": 372,
            "source": 58,
            "target": 81
        },
        {
            "distance": 158,
            "source": 59,
            "target": 60
        },
        {
            "distance": 308,
            "source": 61,
            "target": 62
        },
        {
            "distance": 625,
            "source": 61,
            "target": 70
        },
        {
            "distance": 415,
            "source": 61,
            "target": 71
        },
        {
            "distance": 86,
            "source": 62,
            "target": 63
        },
        {
            "distance": 213,
            "source": 63,
            "target": 65
        },
        {
            "distance": 100,
            "source": 63,
            "target": 64
        },
        {
            "distance": 171,
            "source": 64,
            "target": 80
        },
        {
            "distance": 254,
            "source": 65,
            "target": 66
        },
        {
            "distance": 125,
            "source": 66,
            "target": 98
        },
        {
            "distance": 228,
            "source": 67,
            "target": 98
        },
        {
            "distance": 179,
            "source": 68,
            "target": 98
        },
        {
            "distance": 204,
            "source": 68,
            "target": 87
        },
        {
            "distance": 82,
            "source": 69,
            "target": 70
        },
        {
            "distance": 614,
            "source": 70,
            "target": 79
        },
        {
            "distance": 134,
            "source": 71,
            "target": 72
        },
        {
            "distance": 637,
            "source": 71,
            "target": 95
        },
        {
            "distance": 111,
            "source": 72,
            "target": 73
        },
        {
            "distance": 306,
            "source": 73,
            "target": 119
        },
        {
            "distance": 146,
            "source": 73,
            "target": 96
        },
        {
            "distance": 337,
            "source": 75,
            "target": 97
        },
        {
            "distance": 281,
            "source": 75,
            "target": 82
        },
        {
            "distance": 163,
            "source": 76,
            "target": 97
        },
        {
            "distance": 210,
            "source": 76,
            "target": 99
        },
        {
            "distance": 166,
            "source": 76,
            "target": 77
        },
        {
            "distance": 179,
            "source": 77,
            "target": 102
        },
        {
            "distance": 141,
            "source": 77,
            "target": 78
        },
        {
            "distance": 168,
            "source": 78,
            "target": 84
        },
        {
            "distance": 166,
            "source": 78,
            "target": 85
        },
        {
            "distance": 448,
            "source": 80,
            "target": 81
        },
        {
            "distance": 73,
            "source": 81,
            "target": 82
        },
        {
            "distance": 138,
            "source": 83,
            "target": 140
        },
        {
            "distance": 58,
            "source": 83,
            "target": 86
        },
        {
            "distance": 60,
            "source": 84,
            "target": 85
        },
        {
            "distance": 120,
            "source": 86,
            "target": 107
        },
        {
            "distance": 121,
            "source": 87,
            "target": 88
        },
        {
            "distance": 84,
            "source": 87,
            "target": 95
        },
        {
            "distance": 250,
            "source": 88,
            "target": 93
        },
        {
            "distance": 110,
            "source": 88,
            "target": 94
        },
        {
            "distance": 77,
            "source": 88,
            "target": 95
        },
        {
            "distance": 76,
            "source": 89,
            "target": 90
        },
        {
            "distance": 115,
            "source": 89,
            "target": 92
        },
        {
            "distance": 108,
            "source": 90,
            "target": 91
        },
        {
            "distance": 90,
            "source": 91,
            "target": 92
        },
        {
            "distance": 379,
            "source": 91,
            "target": 94
        },
        {
            "distance": 162,
            "source": 91,
            "target": 105
        },
        {
            "distance": 160,
            "source": 93,
            "target": 119
        },
        {
            "distance": 345,
            "source": 94,
            "target": 125
        },
        {
            "distance": 334,
            "source": 95,
            "target": 96
        },
        {
            "distance": 253,
            "source": 95,
            "target": 119
        },
        {
            "distance": 194,
            "source": 97,
            "target": 98
        },
        {
            "distance": 125,
            "source": 98,
            "target": 100
        },
        {
            "distance": 427,
            "source": 98,
            "target": 104
        },
        {
            "distance": 217,
            "source": 99,
            "target": 100
        },
        {
            "distance": 220,
            "source": 99,
            "target": 102
        },
        {
            "distance": 91,
            "source": 101,
            "target": 104
        },
        {
            "distance": 270,
            "source": 101,
            "target": 102
        },
        {
            "distance": 91,
            "source": 103,
            "target": 104
        },
        {
            "distance": 106,
            "source": 103,
            "target": 106
        },
        {
            "distance": 100,
            "source": 105,
            "target": 106
        },
        {
            "distance": 132,
            "source": 108,
            "target": 140
        },
        {
            "distance": 85,
            "source": 109,
            "target": 116
        },
        {
            "distance": 191,
            "source": 109,
            "target": 110
        },
        {
            "distance": 78,
            "source": 110,
            "target": 112
        },
        {
            "distance": 111,
            "source": 110,
            "target": 111
        },
        {
            "distance": 37,
            "source": 112,
            "target": 117
        },
        {
            "distance": 212,
            "source": 113,
            "target": 143
        },
        {
            "distance": 122,
            "source": 113,
            "target": 128
        },
        {
            "distance": 81,
            "source": 113,
            "target": 114
        },
        {
            "distance": 111,
            "source": 113,
            "target": 115
        },
        {
            "distance": 113,
            "source": 114,
            "target": 115
        },
        {
            "distance": 126,
            "source": 115,
            "target": 116
        },
        {
            "distance": 431,
            "source": 118,
            "target": 119
        },
        {
            "distance": 162,
            "source": 118,
            "target": 121
        },
        {
            "distance": 239,
            "source": 119,
            "target": 124
        },
        {
            "distance": 194,
            "source": 120,
            "target": 127
        },
        {
            "distance": 73,
            "source": 121,
            "target": 122
        },
        {
            "distance": 165,
            "source": 124,
            "target": 126
        },
        {
            "distance": 317,
            "source": 125,
            "target": 127
        },
        {
            "distance": 220,
            "source": 125,
            "target": 126
        },
        {
            "distance": 125,
            "source": 126,
            "target": 127
        },
        {
            "distance": 268,
            "source": 128,
            "target": 129
        },
        {
            "distance": 94,
            "source": 128,
            "target": 143
        },
        {
            "distance": 167,
            "source": 128,
            "target": 142
        },
        {
            "distance": 231,
            "source": 129,
            "target": 133
        },
        {
            "distance": 75,
            "source": 130,
            "target": 131
        },
        {
            "distance": 275,
            "source": 132,
            "target": 135
        },
        {
            "distance": 399,
            "source": 133,
            "target": 134
        },
        {
            "distance": 91,
            "source": 134,
            "target": 135
        },
        {
            "distance": 131,
            "source": 136,
            "target": 137
        },
        {
            "distance": 155,
            "source": 136,
            "target": 138
        },
        {
            "distance": 59,
            "source": 137,
            "target": 139
        },
        {
            "distance": 81,
            "source": 139,
            "target": 140
        },
        {
            "distance": 124,
            "source": 140,
            "target": 141
        },
        {
            "distance": 82,
            "source": 9,
            "target": 1
        },
        {
            "distance": 322,
            "source": 11,
            "target": 1
        },
        {
            "distance": 304,
            "source": 91,
            "target": 2
        },
        {
            "distance": 193,
            "source": 125,
            "target": 2
        },
        {
            "distance": 189,
            "source": 4,
            "target": 3
        },
        {
            "distance": 77,
            "source": 6,
            "target": 3
        },
        {
            "distance": 227,
            "source": 50,
            "target": 4
        },
        {
            "distance": 717,
            "source": 6,
            "target": 5
        },
        {
            "distance": 323,
            "source": 9,
            "target": 6
        },
        {
            "distance": 106,
            "source": 7,
            "target": 6
        },
        {
            "distance": 112,
            "source": 8,
            "target": 7
        },
        {
            "distance": 177,
            "source": 10,
            "target": 8
        },
        {
            "distance": 175,
            "source": 19,
            "target": 10
        },
        {
            "distance": 493,
            "source": 20,
            "target": 10
        },
        {
            "distance": 152,
            "source": 14,
            "target": 11
        },
        {
            "distance": 73,
            "source": 17,
            "target": 12
        },
        {
            "distance": 155,
            "source": 18,
            "target": 12
        },
        {
            "distance": 100,
            "source": 13,
            "target": 12
        },
        {
            "distance": 167,
            "source": 32,
            "target": 12
        },
        {
            "distance": 133,
            "source": 14,
            "target": 13
        },
        {
            "distance": 105,
            "source": 31,
            "target": 13
        },
        {
            "distance": 165,
            "source": 36,
            "target": 15
        },
        {
            "distance": 485,
            "source": 31,
            "target": 15
        },
        {
            "distance": 72,
            "source": 19,
            "target": 16
        },
        {
            "distance": 368,
            "source": 20,
            "target": 16
        },
        {
            "distance": 271,
            "source": 71,
            "target": 16
        },
        {
            "distance": 83,
            "source": 18,
            "target": 17
        },
        {
            "distance": 145,
            "source": 118,
            "target": 20
        },
        {
            "distance": 200,
            "source": 27,
            "target": 21
        },
        {
            "distance": 399,
            "source": 53,
            "target": 21
        },
        {
            "distance": 41,
            "source": 22,
            "target": 21
        },
        {
            "distance": 409,
            "source": 26,
            "target": 22
        },
        {
            "distance": 1,
            "source": 30,
            "target": 23
        },
        {
            "distance": 467,
            "source": 38,
            "target": 23
        },
        {
            "distance": 217,
            "source": 24,
            "target": 23
        },
        {
            "distance": 138,
            "source": 26,
            "target": 24
        },
        {
            "distance": 420,
            "source": 55,
            "target": 24
        },
        {
            "distance": 378,
            "source": 26,
            "target": 25
        },
        {
            "distance": 156,
            "source": 28,
            "target": 25
        },
        {
            "distance": 300,
            "source": 76,
            "target": 25
        },
        {
            "distance": 146,
            "source": 84,
            "target": 26
        },
        {
            "distance": 126,
            "source": 30,
            "target": 26
        },
        {
            "distance": 264,
            "source": 81,
            "target": 27
        },
        {
            "distance": 261,
            "source": 81,
            "target": 28
        },
        {
            "distance": 335,
            "source": 38,
            "target": 29
        },
        {
            "distance": 224,
            "source": 35,
            "target": 32
        },
        {
            "distance": 294,
            "source": 128,
            "target": 33
        },
        {
            "distance": 285,
            "source": 129,
            "target": 33
        },
        {
            "distance": 64,
            "source": 130,
            "target": 33
        },
        {
            "distance": 275,
            "source": 117,
            "target": 33
        },
        {
            "distance": 174,
            "source": 117,
            "target": 34
        },
        {
            "distance": 83,
            "source": 39,
            "target": 34
        },
        {
            "distance": 529,
            "source": 61,
            "target": 35
        },
        {
            "distance": 421,
            "source": 69,
            "target": 36
        },
        {
            "distance": 184,
            "source": 38,
            "target": 37
        },
        {
            "distance": 123,
            "source": 40,
            "target": 37
        },
        {
            "distance": 307,
            "source": 74,
            "target": 38
        },
        {
            "distance": 164,
            "source": 40,
            "target": 39
        },
        {
            "distance": 98,
            "source": 42,
            "target": 41
        },
        {
            "distance": 240,
            "source": 141,
            "target": 41
        },
        {
            "distance": 67,
            "source": 48,
            "target": 41
        },
        {
            "distance": 40,
            "source": 47,
            "target": 42
        },
        {
            "distance": 108,
            "source": 108,
            "target": 43
        },
        {
            "distance": 175,
            "source": 138,
            "target": 44
        },
        {
            "distance": 45,
            "source": 108,
            "target": 44
        },
        {
            "distance": 19,
            "source": 47,
            "target": 45
        },
        {
            "distance": 160,
            "source": 49,
            "target": 46
        },
        {
            "distance": 65,
            "source": 123,
            "target": 46
        },
        {
            "distance": 354,
            "source": 127,
            "target": 47
        },
        {
            "distance": 64,
            "source": 48,
            "target": 47
        },
        {
            "distance": 202,
            "source": 122,
            "target": 47
        },
        {
            "distance": 31,
            "source": 123,
            "target": 47
        },
        {
            "distance": 117,
            "source": 107,
            "target": 48
        },
        {
            "distance": 123,
            "source": 50,
            "target": 49
        },
        {
            "distance": 168,
            "source": 59,
            "target": 51
        },
        {
            "distance": 151,
            "source": 135,
            "target": 52
        },
        {
            "distance": 145,
            "source": 59,
            "target": 52
        },
        {
            "distance": 273,
            "source": 131,
            "target": 53
        },
        {
            "distance": 240,
            "source": 132,
            "target": 53
        },
        {
            "distance": 90,
            "source": 54,
            "target": 53
        },
        {
            "distance": 191,
            "source": 56,
            "target": 53
        },
        {
            "distance": 227,
            "source": 59,
            "target": 54
        },
        {
            "distance": 228,
            "source": 74,
            "target": 56
        },
        {
            "distance": 193,
            "source": 58,
            "target": 57
        },
        {
            "distance": 179,
            "source": 60,
            "target": 57
        },
        {
            "distance": 636,
            "source": 79,
            "target": 57
        },
        {
            "distance": 372,
            "source": 81,
            "target": 58
        },
        {
            "distance": 158,
            "source": 60,
            "target": 59
        },
        {
            "distance": 308,
            "source": 62,
            "target": 61
        },
        {
            "distance": 625,
            "source": 70,
            "target": 61
        },
        {
            "distance": 415,
            "source": 71,
            "target": 61
        },
        {
            "distance": 86,
            "source": 63,
            "target": 62
        },
        {
            "distance": 213,
            "source": 65,
            "target": 63
        },
        {
            "distance": 100,
            "source": 64,
            "target": 63
        },
        {
            "distance": 171,
            "source": 80,
            "target": 64
        },
        {
            "distance": 254,
            "source": 66,
            "target": 65
        },
        {
            "distance": 125,
            "source": 98,
            "target": 66
        },
        {
            "distance": 228,
            "source": 98,
            "target": 67
        },
        {
            "distance": 179,
            "source": 98,
            "target": 68
        },
        {
            "distance": 204,
            "source": 87,
            "target": 68
        },
        {
            "distance": 82,
            "source": 70,
            "target": 69
        },
        {
            "distance": 614,
            "source": 79,
            "target": 70
        },
        {
            "distance": 134,
            "source": 72,
            "target": 71
        },
        {
            "distance": 637,
            "source": 95,
            "target": 71
        },
        {
            "distance": 111,
            "source": 73,
            "target": 72
        },
        {
            "distance": 306,
            "source": 119,
            "target": 73
        },
        {
            "distance": 146,
            "source": 96,
            "target": 73
        },
        {
            "distance": 337,
            "source": 97,
            "target": 75
        },
        {
            "distance": 281,
            "source": 82,
            "target": 75
        },
        {
            "distance": 163,
            "source": 97,
            "target": 76
        },
        {
            "distance": 210,
            "source": 99,
            "target": 76
        },
        {
            "distance": 166,
            "source": 77,
            "target": 76
        },
        {
            "distance": 179,
            "source": 102,
            "target": 77
        },
        {
            "distance": 141,
            "source": 78,
            "target": 77
        },
        {
            "distance": 168,
            "source": 84,
            "target": 78
        },
        {
            "distance": 166,
            "source": 85,
            "target": 78
        },
        {
            "distance": 448,
            "source": 81,
            "target": 80
        },
        {
            "distance": 73,
            "source": 82,
            "target": 81
        },
        {
            "distance": 138,
            "source": 140,
            "target": 83
        },
        {
            "distance": 58,
            "source": 86,
            "target": 83
        },
        {
            "distance": 60,
            "source": 85,
            "target": 84
        },
        {
            "distance": 120,
            "source": 107,
            "target": 86
        },
        {
            "distance": 121,
            "source": 88,
            "target": 87
        },
        {
            "distance": 84,
            "source": 95,
            "target": 87
        },
        {
            "distance": 250,
            "source": 93,
            "target": 88
        },
        {
            "distance": 110,
            "source": 94,
            "target": 88
        },
        {
            "distance": 77,
            "source": 95,
            "target": 88
        },
        {
            "distance": 76,
            "source": 90,
            "target": 89
        },
        {
            "distance": 115,
            "source": 92,
            "target": 89
        },
        {
            "distance": 108,
            "source": 91,
            "target": 90
        },
        {
            "distance": 90,
            "source": 92,
            "target": 91
        },
        {
            "distance": 379,
            "source": 94,
            "target": 91
        },
        {
            "distance": 162,
            "source": 105,
            "target": 91
        },
        {
            "distance": 160,
            "source": 119,
            "target": 93
        },
        {
            "distance": 345,
            "source": 125,
            "target": 94
        },
        {
            "distance": 334,
            "source": 96,
            "target": 95
        },
        {
            "distance": 253,
            "source": 119,
            "target": 95
        },
        {
            "distance": 194,
            "source": 98,
            "target": 97
        },
        {
            "distance": 125,
            "source": 100,
            "target": 98
        },
        {
            "distance": 427,
            "source": 104,
            "target": 98
        },
        {
            "distance": 217,
            "source": 100,
            "target": 99
        },
        {
            "distance": 220,
            "source": 102,
            "target": 99
        },
        {
            "distance": 91,
            "source": 104,
            "target": 101
        },
        {
            "distance": 270,
            "source": 102,
            "target": 101
        },
        {
            "distance": 91,
            "source": 104,
            "target": 103
        },
        {
            "distance": 106,
            "source": 106,
            "target": 103
        },
        {
            "distance": 100,
            "source": 106,
            "target": 105
        },
        {
            "distance": 132,
            "source": 140,
            "target": 108
        },
        {
            "distance": 85,
            "source": 116,
            "target": 109
        },
        {
            "distance": 191,
            "source": 110,
            "target": 109
        },
        {
            "distance": 78,
            "source": 112,
            "target": 110
        },
        {
            "distance": 111,
            "source": 111,
            "target": 110
        },
        {
            "distance": 37,
            "source": 117,
            "target": 112
        },
        {
            "distance": 212,
            "source": 143,
            "target": 113
        },
        {
            "distance": 122,
            "source": 128,
            "target": 113
        },
        {
            "distance": 81,
            "source": 114,
            "target": 113
        },
        {
            "distance": 111,
            "source": 115,
            "target": 113
        },
        {
            "distance": 113,
            "source": 115,
            "target": 114
        },
        {
            "distance": 126,
            "source": 116,
            "target": 115
        },
        {
            "distance": 431,
            "source": 119,
            "target": 118
        },
        {
            "distance": 162,
            "source": 121,
            "target": 118
        },
        {
            "distance": 239,
            "source": 124,
            "target": 119
        },
        {
            "distance": 194,
            "source": 127,
            "target": 120
        },
        {
            "distance": 73,
            "source": 122,
            "target": 121
        },
        {
            "distance": 165,
            "source": 126,
            "target": 124
        },
        {
            "distance": 317,
            "source": 127,
            "target": 125
        },
        {
            "distance": 220,
            "source": 126,
            "target": 125
        },
        {
            "distance": 125,
            "source": 127,
            "target": 126
        },
        {
            "distance": 268,
            "source": 129,
            "target": 128
        },
        {
            "distance": 94,
            "source": 143,
            "target": 128
        },
        {
            "distance": 167,
            "source": 142,
            "target": 128
        },
        {
            "distance": 231,
            "source": 133,
            "target": 129
        },
        {
            "distance": 75,
            "source": 131,
            "target": 130
        },
        {
            "distance": 275,
            "source": 135,
            "target": 132
        },
        {
            "distance": 399,
            "source": 134,
            "target": 133
        },
        {
            "distance": 91,
            "source": 135,
            "target": 134
        },
        {
            "distance": 131,
            "source": 137,
            "target": 136
        },
        {
            "distance": 155,
            "source": 138,
            "target": 136
        },
        {
            "distance": 59,
            "source": 139,
            "target": 137
        },
        {
            "distance": 81,
            "source": 140,
            "target": 139
        },
        {
            "distance": 124,
            "source": 141,
            "target": 140
        }
    ]
}
